#Pason DataHub                     Well Dossier No:    28542213
#LAS - Log ASCII Standard         Report Generated:    2023-08-31 16:35:45MDT
~VERSION INFORMATION
VERS.                                          2.0:    CWLS LOG ASCII STANDARD - VERSION 2.0
WRAP.                                           No:    ONE LINE PER DEPTH STEP
~WELL INFORMATION BLOCK
#MNEM.UNIT                                     DATA    DESCRIPTION OF MNEMONIC
#---------                                     ----    -----------------------
STRT.meters                                   0.20:    Start Depth
STOP.meters                                5659.80:    Stop Depth
STEP.meters                                   0.20:    Step Value
NULL.                                      -999.25:    NULL Value
COMP.                           Ovintiv Canada ULC:    Company
WELL.                 OVV HZ 108 WEMBLEY 1-29-71-8:    Well
FLD .                                      WEMBLEY:    Field
LOC .                               05-31-071-08W6:    Location
PROV.                                           AB:    Province
CTRY.                                       Canada:    Country
SRVC.             Precision Drilling, div of PDCLP:    Service Company
DATE.                                             :    Date
UWI .                        108/01-29-071-08W6/00:    Unique Well ID
RIG .                                Precision 535:    Rig
NUM .                                     28542213:    Well Dossier No
~CURVE INFORMATION
#MNEM.UNIT                                 API CODE    CURVE DESCRIPTION
#---------                                 --------    -----------------
DEPT .meters                                   001:      5  Hole Depth
ROP  .m/hr                                        :      3  Rate Of Penetration
OBR  .m/hr                                        :     14  On Bottom ROP
WOB  .kDaN                                        :     13  Weight on Bit
RPM  .RPM                                         :     11  Rotary RPM
HL   .kDaN                                        :      7  Hook Load
BHT  .meters                                      :     28  Block Height
TOR  .                                            :     12  Rotary Torque
TPO  .m3/min                                      :     26  Total Pump Output
SPP  .kPa                                         :      8  Standpipe Pressure
DIFP .kPa                                         :    123  Differential Pressure
GAM  .api                                         :     49  Gamma
DATE .yymmdd                                      :      0  YearMonthDay
TIME .hhmmss                                      :      0  HoursMinutesSeconds
# NOTE: Data generated with Omit Duplicate Depths enabled
~A DEPT       ROP      OBR      WOB      RPM       HL      BHT      TOR      TPO      SPP     DIFP      GAM   YYMMDD HHMMSS
# ...
1156.80     98.11    98.11      4.1       50     44.0    175.2 5372.250     1.30    15281   3199.7   138.15   230215 232702
1157.00     98.11    98.11      4.7       50     42.4    175.0 5477.420     1.30    15700   3618.4  -999.25   230215 232709
1157.20     97.93    97.93      4.7       51     43.3    174.8 5428.590     1.30    15834   3753.0  -999.25   230215 232716
1157.40     97.91    97.91      3.3       51     45.4    174.6 5007.920     1.30    15761   3679.8  -999.25   230215 232723
1157.60     98.17    98.17      2.0       50     45.3    174.4 4775.050     1.30    15014   2932.5  -999.25   230215 232731
1157.80     98.17    98.17      2.1       51     44.6    174.2 4887.730     1.30    15026   2944.6  -999.25   230215 232738
1158.00     98.20    98.20      2.1       50     44.9    174.0 4835.140     1.29    15060   2979.1  -999.25   230215 232746
1158.20     98.21    98.21      2.6       50     44.6    173.8 4966.600     1.30    14885   2804.2  -999.25   230215 232753
1158.40     98.23    98.23      3.2       50     43.8    173.6 5323.420     1.29    15331   3249.4  -999.25   230215 232800
1158.60     98.23    98.23      4.1       50     43.2    173.4 5413.560     1.30    15789   3708.0  -999.25   230215 232807
1158.80     98.25    98.25      4.6       50     42.4    173.2 5488.690     1.30    16105   4023.4   138.15   230215 232815
1159.00     98.13    98.13      5.2       51     42.0    173.0 5526.240     1.30    16232   4151.2  -999.25   230215 232822
1159.20     97.69    97.69      5.4       51     43.4    172.8 6018.280     1.30    16265   4184.2  -999.25   230215 232830
1159.40     97.64    97.64      4.2       50     43.9    172.6 5458.640     1.30    16296   4214.5  -999.25   230215 232837
1159.60     98.03    98.03      4.8       50     42.3    172.4 6048.320     1.29    16055   3974.1  -999.25   230215 232844
1159.80     98.03    98.03      6.2       51     41.7    172.2 6172.270     1.30    16186   4104.5  -999.25   230215 232852
1160.00     97.81    97.81      6.6       51     40.2    172.0 5988.230     1.29    16686   4604.4    94.88   230215 232859
1160.20     97.89    97.89      6.4       50     40.5    171.8 5774.140     1.30    16692   4610.7  -999.25   230215 232906
1160.40     98.19    98.19      6.1       50     40.7    171.6 5770.380     1.30    16536   4455.1  -999.25   230215 232914
1160.60     98.28    98.28      5.9       50     40.8    171.4 5635.170     1.30    16533   4451.4  -999.25   230215 232921
1160.80     98.28    98.28      6.4       50     40.8    171.2 5545.020     1.30    16398   4317.3  -999.25   230215 232928
1161.00     98.44    98.44      6.9       51     40.1    171.0 6393.870     1.30    16423   4341.6  -999.25   230215 232935
1161.20    102.55   102.55      8.5       50     39.3    170.8 6423.920     1.30    17076   4995.2  -999.25   230215 232940
1161.40    111.53   111.53      9.6       51     37.6    170.6 6874.640     1.29    17576   5494.4  -999.25   230215 232945
1161.60    125.11   125.11      9.8       51     37.3    170.4 6863.370     1.30    17819   5738.1  -999.25   230215 232950
1161.80    135.49   135.49     10.5       51     36.4    170.2 6863.370     1.30    18137   6055.6  -999.25   230215 232955
1162.00    140.77   140.77     10.9       51     36.4    170.0 7137.560     1.29    18489   6407.4   121.17   230215 233000
1162.20    141.76   141.76     10.3       51     37.1    169.8 6807.030     1.30    18535   6453.8   121.17   230215 233005
1162.40    141.77   141.77     10.1       51     36.9    169.6 7291.550     1.30    18438   6356.6   121.17   230215 233011
1162.60    141.96   141.96      9.9       51     37.2    169.4 6694.350     1.30    18388   6307.3   121.17   230215 233016
1162.80    142.08   142.08      9.6       51     37.4    169.2 6746.940     1.30    18329   6248.2   121.17   230215 233021
1163.00    142.15   142.15      9.6       51     37.6    169.0 6566.650     1.30    18288   6206.9  -999.25   230215 233026
1163.20    142.87   142.87      9.0       50     38.0    168.8 6258.660     1.30    18023   5941.6  -999.25   230215 233030
1163.40    146.45   146.45     10.2       50     37.2    168.6 6638.010     1.29    17590   5509.3  -999.25   230215 233034
1163.60    152.55   152.55     12.0       50     35.7    168.4 6908.440     1.30    18203   6121.7  -999.25   230215 233038
1163.80    160.36   160.36     12.4       50     34.5    168.2 7133.800     1.30    18641   6559.7  -999.25   230215 233043
1164.00    164.48   164.48     12.8       51     34.0    168.0 7118.780     1.30    18730   6648.6  -999.25   230215 233048
1164.20    164.79   164.79     13.2       50     34.0    167.8 6900.930     1.30    18696   6615.2  -999.25   230215 233052
1164.40    164.22   164.22     13.5       50     33.4    167.6 7036.150     1.30    18773   6692.2  -999.25   230215 233057
1164.60    160.02   160.02     13.4       50     33.5    167.4 7021.120     1.29    18782   6700.3   113.47   230215 233102
1164.80    154.90   154.90     13.2       50     33.9    167.2 7156.340     1.30    18853   6771.9   113.47   230215 233107
1165.00    150.00   150.00     12.9       50     34.0    167.0 7238.970     1.30    18808   6726.8   113.47   230215 233112
1165.20    147.43   147.43     13.1       50     33.9    166.8 7024.880     1.30    18939   6858.0   113.47   230215 233116
1165.40    150.50   150.50     13.1       50     34.0    166.6 6953.520     1.30    18957   6875.4   108.34   230215 233121
1165.60    153.67   153.67     13.5       50     33.4    166.4 7449.300     1.30    18783   6701.9  -999.25   230215 233126
1165.80    153.89   153.89     13.6       51     33.7    166.2 7464.330     1.30    19012   6930.7  -999.25   230215 233131
1166.00    153.39   153.39     13.4       50     33.4    166.0 7032.390     1.30    18968   6886.7  -999.25   230215 233136
1166.20    148.65   148.65     13.4       50     33.4    165.8 6859.620     1.29    18672   6590.4  -999.25   230215 233142
1166.40    142.56   142.56     13.2       50     33.7    165.6 6825.810     1.30    18756   6674.6  -999.25   230215 233147
1166.60    137.14   137.14     13.1       51     33.7    165.4 7310.330     1.30    18906   6824.9  -999.25   230215 233153
1166.80    134.38   134.38     13.1       51     34.0    165.2 7577.010     1.29    19235   7154.0  -999.25   230215 233158
1167.00    135.84   135.84     12.9       51     34.0    165.0 7854.950     1.29    19180   7098.8  -999.25   230215 233202
1167.20    139.40   139.40     13.0       51     34.0    164.8 7565.740     1.29    19307   7225.8    92.64   230215 233207
1167.40    144.07   144.07     12.9       51     34.1    164.6 7509.400     1.30    19407   7326.1  -999.25   230215 233212
1167.60    148.05   148.05     13.3       51     33.8    164.4 7809.880     1.29    19466   7385.1  -999.25   230215 233217
1167.80    151.23   151.23     12.9       51     34.2    164.2 7486.860     1.30    19479   7397.4  -999.25   230215 233221
1168.00    154.22   154.22     12.6       51     34.3    164.0 7208.920     1.29    19575   7494.1  -999.25   230215 233225
1168.20    157.97   157.97     12.6       50     34.3    163.8 7231.460     1.29    19582   7500.7  -999.25   230215 233229
1168.40    163.97   163.97     12.5       50     34.6    163.6 7107.510     1.30    19531   7450.0  -999.25   230215 233233
1168.60    170.15   170.15     12.8       51     34.6    163.4 6893.420     1.30    19187   7105.5  -999.25   230215 233237
1168.80    174.00   174.00     13.9       50     33.3    163.2 7573.250     1.30    18937   6856.0  -999.25   230215 233242
1169.00    174.00   174.00     13.5       51     33.8    163.0 7764.810     1.29    19412   7330.7  -999.25   230215 233247
1169.20    171.35   171.35     13.6       51     33.7    162.8 7088.730     1.29    19499   7417.6  -999.25   230215 233252
1169.40    162.82   162.82     13.6       51     33.4    162.6 6882.150     1.29    19077   6995.4  -999.25   230215 233257
1169.60    152.83   152.83     13.3       51     33.8    162.4 6491.530     1.29    18840   6758.7  -999.25   230215 233302
