#Pason DataHub                     Well Dossier No:    28542213
#LAS - Log ASCII Standard         Report Generated:    2023-08-31 16:35:45MDT
~VERSION INFORMATION
VERS.                                          2.0:    CWLS LOG ASCII STANDARD - VERSION 2.0
WRAP.                                           No:    ONE LINE PER DEPTH STEP
~WELL INFORMATION BLOCK
#MNEM.UNIT                                     DATA    DESCRIPTION OF MNEMONIC
#---------                                     ----    -----------------------
STRT.meters                                   0.20:    Start Depth
STOP.meters                                5659.80:    Stop Depth
STEP.meters                                   0.20:    Step Value
NULL.                                      -999.25:    NULL Value
COMP.                           Ovintiv Canada ULC:    Company
WELL.                 OVV HZ 108 WEMBLEY 1-29-71-8:    Well
FLD .                                      WEMBLEY:    Field
LOC .                               05-31-071-08W6:    Location
PROV.                                           AB:    Province
CTRY.                                       Canada:    Country
SRVC.             Precision Drilling, div of PDCLP:    Service Company
DATE.                                             :    Date
UWI .                        108/01-29-071-08W6/00:    Unique Well ID
RIG .                                Precision 535:    Rig
NUM .                                     28542213:    Well Dossier No
~CURVE INFORMATION
#MNEM.UNIT                                 API CODE    CURVE DESCRIPTION
#---------                                 --------    -----------------
DEPT .meters                                   001:      5  Hole Depth
ROP  .m/hr                                        :      3  Rate Of Penetration
OBR  .m/hr                                        :     14  On Bottom ROP
WOB  .kDaN                                        :     13  Weight on Bit
RPM  .RPM                                         :     11  Rotary RPM
HL   .kDaN                                        :      7  Hook Load
BHT  .meters                                      :     28  Block Height
TOR  .                                            :     12  Rotary Torque
TPO  .m3/min                                      :     26  Total Pump Output
SPP  .kPa                                         :      8  Standpipe Pressure
DIFP .kPa                                         :    123  Differential Pressure
GAM  .api                                         :     49  Gamma
DATE .yymmdd                                      :      0  YearMonthDay
TIME .hhmmss                                      :      0  HoursMinutesSeconds
# NOTE: Data generated with Omit Duplicate Depths enabled
~A DEPT       ROP      OBR      WOB      RPM       HL      BHT      TOR      TPO      SPP     DIFP      GAM   YYMMDD HHMMSS
# ...
26.20     -999.25  -999.25  -999.25  -999.25  -999.25  -999.25  -999.25  -999.25  -999.25  -999.25  -999.25   230214 114123
26.40     -999.25  -999.25  -999.25  -999.25  -999.25  -999.25  -999.25  -999.25  -999.25  -999.25  -999.25   230214 114123
26.60      446.29   446.29      0.0        0     23.6    173.0    0.000     0.00       39 -25059.3  -999.25   230214 131242
26.80        0.03     0.03      0.0        0     23.3    165.9    0.000     0.00        0 -25098.5  -999.25   230214 131244
27.00        0.07     0.07      0.0        0     23.3    165.7    0.000     0.00        0 -25098.5  -999.25   230214 131246
27.20        0.13     0.13      0.0        0     23.3    165.5    0.000     0.00        0 -25098.5  -999.25   230214 131248
27.40        0.21     0.21      0.0        0     23.4    165.3    0.000     0.00        0 -25098.5  -999.25   230214 131250
27.60        0.32     0.32      0.0        0     23.3    165.1    0.000     0.00        0 -25098.5  -999.25   230214 131252
27.80        0.55     0.55      0.0        0     23.3    164.8    0.000     0.00        0 -25098.5  -999.25   230214 131255
28.00       49.68    49.68      0.0       25     23.2    164.7 12899.200     0.00       21 -25077.8  -999.25   230214 131535
28.20        0.23     0.23      0.0        0     23.4    163.6    0.000     0.00        0 -25098.5  -999.25   230214 131537
28.40        0.83     0.83      0.0        0     23.4    163.4    0.000     0.00        0 -25098.5  -999.25   230214 131538
28.60       60.54    60.54      0.0        0     23.4    163.2    0.000     0.00        0 -25098.5  -999.25   230214 131559
28.80       51.61    51.61      0.0        0     23.2    163.0    0.000     0.00        0 -25098.5  -999.25   230214 131602
29.00       53.02    53.02      0.0        0     23.3    162.8    0.000     0.00        0 -25098.5  -999.25   230214 131604
29.20       61.50    61.50      0.0        0     23.3    162.6    0.000     0.00        0 -25098.5  -999.25   230214 131606
29.40       79.83    79.83      0.0        0     23.2    162.4    0.000     0.00        0 -25098.5  -999.25   230214 131608
29.60      113.85   113.85      0.0        0     23.2    162.2    0.000     0.00        0 -25098.5  -999.25   230214 131610
29.80      149.41   149.41      0.0        0     23.3    162.0    0.000     0.00        0 -25098.5  -999.25   230214 131612
30.00      185.93   185.93      0.0        0     23.3    161.8    0.000     0.00        0 -25098.5  -999.25   230214 131614
30.20      221.74   221.74      0.0        0     23.2    161.6    0.000     0.00        0 -25098.5  -999.25   230214 131615
30.40      256.42   256.42      0.0        0     23.2    161.4    0.000     0.00        0 -25098.5  -999.25   230214 131617
30.60      288.86   288.86      0.0        0     23.2    161.2    0.000     0.00        0 -25098.5  -999.25   230214 131619
30.80      317.58   317.58      0.0        0     23.2    161.0    0.000     0.00        0 -25098.5  -999.25   230214 131621
31.00      341.49   341.49      0.0        0     23.2    160.8    0.000     0.00       11 -25087.7  -999.25   230214 131623
31.20      361.51   361.51      0.0        0     23.1    160.6    0.000     0.00       21 -25077.4  -999.25   230214 131625
31.40      373.78   373.78      0.0        0     22.8    160.4    0.000     0.00       21 -25077.4  -999.25   230214 131626
31.60      382.34   382.34      0.0        0     22.5    160.2    0.000     0.00       21 -25077.4  -999.25   230214 131628
31.80      388.29   388.29      0.0        0     22.3    160.0    0.000     0.00       10 -25088.1  -999.25   230214 131630
32.00      391.93   391.93      0.0        0     21.6    159.8    0.000     0.00       20 -25078.0  -999.25   230214 131632
32.20      393.65   393.65      0.0        0     21.2    159.6    0.000     0.00       10 -25088.4  -999.25   230214 131634
32.40      394.35   394.35      0.0        0     20.6    159.4    0.000     0.00       10 -25088.4  -999.25   230214 131635
32.60      394.42   394.42      0.0        0     19.9    159.2    0.000     0.00       10 -25088.4  -999.25   230214 131637
32.80      394.42   394.42      0.0        0     19.2    159.0    0.000     0.00        0 -25098.5  -999.25   230214 131639
33.00      394.34   394.34      0.0        0     18.5    158.8    0.000     0.00        0 -25098.5  -999.25   230214 131641
33.20      394.24   394.24      0.0        0     17.6    158.6    0.000     0.00        0 -25098.5  -999.25   230214 131643
33.40      394.05   394.05      0.0        0     16.6    158.4    0.000     0.00        0 -25098.5  -999.25   230214 131645
33.60       23.86    23.86      0.1       40     22.9    158.3 1052.870     2.63     5142     81.6  -999.25   230214 132123
33.80       50.67    50.67      0.1       40     22.8    158.1 1086.680     2.63     5286    225.5  -999.25   230214 132130
34.00       87.07    87.07      0.2       40     22.9    157.9 1135.500     2.63     5278    217.2  -999.25   230214 132138
34.20       98.58    98.58      0.3       40     22.7    157.7 1169.310     2.63     5141     79.9  -999.25   230214 132144
34.40      102.53   102.53      0.4       40     22.6    157.5 1244.430     2.63     5181    120.7  -999.25   230214 132151
34.60      109.12   109.12      0.5       40     22.6    157.3 1334.570     2.63     5195    133.9  -999.25   230214 132157
34.80      114.81   114.81      0.9       40     22.3    157.1 1574.950     2.63     5255    194.3  -999.25   230214 132203
35.00      117.14   117.14      1.2       40     21.9    156.9 1785.290     2.63     5336    275.1  -999.25   230214 132209
35.20      117.47   117.47      1.6       40     21.6    156.7 2100.790     2.63     5531    470.6  -999.25   230214 132215
35.40      117.59   117.59      2.3       40     21.2    156.5 2367.470     2.63     5678    617.0  -999.25   230214 132221
35.60      117.68   117.68      2.9       40     20.6    156.3 2994.710     2.63     5887    826.8  -999.25   230214 132227
35.80      117.66   117.66      3.4       40     19.9    156.1 2927.110     2.63     6093   1032.2  -999.25   230214 132233
36.00      117.58   117.58      3.9       40     19.5    155.9 3272.660     2.63     6060    999.7  -999.25   230214 132240
36.20      117.48   117.48      4.5       41     19.9    155.7 3652.010     2.63     6143   1082.3  -999.25   230214 132246
36.40      117.21   117.21      4.5       40     19.9    155.5 3896.150     2.63     6319   1257.9  -999.25   230214 132253
36.60      114.80   114.80      4.6       41     22.5    155.2 3967.510     2.63     6474   1413.2  -999.25   230214 132259
36.80      113.23   113.23      0.5       40     22.8    155.0 1274.480     2.63     6178   1116.9  -999.25   230214 132304
37.00      118.52   118.52      0.1       40     22.8    154.8 1127.990     2.63     5402    340.9  -999.25   230214 132310
37.20      125.80   125.80      0.2       40     22.9    154.6 1605.000     2.63     5301    240.5  -999.25   230214 132315
37.40      130.99   130.99      4.1       40     22.3    154.4 4102.730     2.63     6249   1188.8  -999.25   230214 132322
37.60      130.92   130.92      4.8       40     18.7    154.2 4196.630     2.63     6543   1482.0  -999.25   230214 132328
37.80      125.31   125.31      4.7       41     21.9    154.0 5218.250     2.63     6581   1520.5  -999.25   230214 132333
38.00      118.44   118.44      3.1       41     21.6    153.8 3982.540     2.63     6383   1322.1  -999.25   230214 132339
38.20      124.39   124.39      4.1       40     20.3    153.6 4609.790     2.63     6556   1495.6  -999.25   230214 132344
38.40      130.24   130.24      4.1       41     20.8    153.4 4786.320     2.63     6896   1835.4  -999.25   230214 132349
38.60      133.84   133.84      3.4       40     20.9    153.2 3851.080     2.63     6845   1784.6  -999.25   230214 132355
38.80      135.64   135.64      3.5       41     20.9    153.0 4354.380     2.63     6493   1432.3  -999.25   230214 132400
39.00      136.96   136.96      3.8       41     20.9    152.8 4132.780     2.63     6510   1449.3  -999.25   230214 132405
