#Pason DataHub                     Well Dossier No:    28542213
#LAS - Log ASCII Standard         Report Generated:    2023-08-31 16:35:45MDT
~VERSION INFORMATION
VERS.                                          2.0:    CWLS LOG ASCII STANDARD - VERSION 2.0
WRAP.                                           No:    ONE LINE PER DEPTH STEP
~WELL INFORMATION BLOCK
#MNEM.UNIT                                     DATA    DESCRIPTION OF MNEMONIC
#---------                                     ----    -----------------------
STRT.meters                                   0.20:    Start Depth
STOP.meters                                5659.80:    Stop Depth
STEP.meters                                   0.20:    Step Value
NULL.                                      -999.25:    NULL Value
COMP.                           Ovintiv Canada ULC:    Company
WELL.                 OVV HZ 108 WEMBLEY 1-29-71-8:    Well
FLD .                                      WEMBLEY:    Field
LOC .                               05-31-071-08W6:    Location
PROV.                                           AB:    Province
CTRY.                                       Canada:    Country
SRVC.             Precision Drilling, div of PDCLP:    Service Company
DATE.                                             :    Date
UWI .                        108/01-29-071-08W6/00:    Unique Well ID
RIG .                                Precision 535:    Rig
NUM .                                     28542213:    Well Dossier No
~CURVE INFORMATION
#MNEM.UNIT                                 API CODE    CURVE DESCRIPTION
#---------                                 --------    -----------------
DEPT .meters                                   001:      5  Hole Depth
ROP  .m/hr                                        :      3  Rate Of Penetration
OBR  .m/hr                                        :     14  On Bottom ROP
WOB  .kDaN                                        :     13  Weight on Bit
RPM  .RPM                                         :     11  Rotary RPM
HL   .kDaN                                        :      7  Hook Load
BHT  .meters                                      :     28  Block Height
TOR  .                                            :     12  Rotary Torque
TPO  .m3/min                                      :     26  Total Pump Output
SPP  .kPa                                         :      8  Standpipe Pressure
DIFP .kPa                                         :    123  Differential Pressure
GAM  .api                                         :     49  Gamma
DATE .yymmdd                                      :      0  YearMonthDay
TIME .hhmmss                                      :      0  HoursMinutesSeconds
# NOTE: Data generated with Omit Duplicate Depths enabled
~A DEPT       ROP      OBR      WOB      RPM       HL      BHT      TOR      TPO      SPP     DIFP      GAM   YYMMDD HHMMSS
# ...
2287.80     12.10    12.10     10.9        0     57.5    159.0 17905.900     1.09    17669   1891.3    73.72   230217 133315
2288.00     12.49    12.49     10.5        0     57.0    158.8 17898.400     1.09    17512   1734.5    63.79   230217 133412
2288.20     15.12    15.12     12.0        0     56.1    158.6 17898.400     1.09    17351   1573.9    45.20   230217 133501
2288.40     14.45    14.45     12.3        3     54.9    158.4 17905.900     1.09    17677   1899.7    40.71   230217 133609
2288.60     11.76    11.76     12.2        2     55.1    158.2 8350.740     1.09    17649   1871.9    40.71   230217 133706
2288.80     13.99    13.99     12.1        3     55.1    158.0 8989.260     1.09    17679   1901.3    42.63   230217 133801
2289.00     13.40    13.40     11.9        0     55.8    157.8 2066.990     1.09    17746   1968.3    47.44   230217 133855
2289.20     14.94    14.94     12.1        0     55.8    157.6 1969.330     1.09    17975   2198.1    47.44   230217 133956
2289.40     11.80    11.80     11.2        2     57.2    157.4 3073.590     1.09    17861   2084.0    52.57   230217 134059
2289.60     13.57    13.57     11.3        2     57.8    157.2 2416.290     1.09    17822   2044.7    53.85   230217 134208
2289.80     15.74    15.74     12.0        1     57.2    157.0 2408.780     1.09    17898   2121.1    65.39   230217 134320
2290.00     12.19    12.19     11.4        2     57.3    156.8 3178.760     1.09    17872   2094.3    65.39   230217 134429
2290.20     13.94    13.94     11.8        0     55.5    156.6 2108.300     1.09    18083   2305.6    70.20   230217 134525
2290.40     12.37    12.37     11.9        2     55.6    156.4 17898.400     1.09    18076   2298.6    78.85   230217 134627
2290.60     12.56    12.56     11.6        4     56.3    156.2 17905.900     1.09    18065   2287.4    73.72   230217 134735
2290.80     12.72    12.72     11.5        4     56.6    156.0 4696.170     1.09    18241   2463.9    71.80   230217 134836
2291.00     15.47    15.47     12.1        0     55.4    155.8 2814.430     1.09    18220   2442.9    63.79   230217 134926
2291.20     15.43    15.43     11.9        0     55.4    155.6 2694.240     1.09    18462   2685.1    58.02   230217 135017
2291.40     13.84    13.84     11.8        3     57.0    155.4 4391.940     1.09    18312   2534.3    78.85   230217 135112
2291.60     16.84    16.84     12.4        0     55.4    155.2 2634.140     1.09    18202   2424.6    73.72   230217 135210
2291.80     13.36    13.36     12.1        0     55.2    155.0 2570.290     1.09    18207   2429.7    73.72   230217 135304
2292.00     13.59    13.59     12.2        0     55.6    154.8 2555.260     1.09    18176   2398.2    73.72   230217 135403
2292.20     14.72    14.72     11.9        0     55.3    154.6 2544.000     1.09    18155   2377.2    66.99   230217 135454
2292.40     14.15    14.15     12.2        0     55.2    154.4 2528.970     1.09    18150   2373.0    70.20   230217 135547
2292.60     13.74    13.74     12.1        2     55.8    154.2 2517.710     1.09    18200   2422.2    70.20   230217 135643
2292.80     14.13    14.13     12.2        0     55.1    154.0 1345.840     1.09    18220   2442.3    70.20   230217 135735
2293.00     15.02    15.02     12.3        0     55.1    153.8 1394.670     1.09    18165   2387.3    59.30   230217 135822
2293.20     15.08    15.08     12.3        0     55.0    153.6 1428.470     1.09    18075   2298.0    59.30   230217 135916
2293.40     13.59    13.59     12.3        0     54.9    153.4 1443.500     1.09    17995   2217.9    56.42   230217 140012
2293.60     14.55    14.55     12.3        5     55.3    153.2 5571.310     1.09    18070   2292.4    60.90   230217 140107
2293.80     13.44    13.44     12.3        1     55.5    153.0 5950.670     1.09    18328   2550.6    60.90   230217 140159
2294.00     13.93    13.93     12.2        1     55.3    152.8 1173.060     1.09    18238   2461.0    60.90   230217 140257
2294.20     13.37    13.37     11.8        4     57.0    152.6 4846.410     1.09    18657   2879.7    63.79   230217 140349
2294.40     19.74    19.74     12.0        0     55.9    152.4 2649.160     1.09    17870   2092.2    63.79   230217 140429
2294.60     18.92    18.92     12.3        3     54.9    152.2 2641.650     1.09    18063   2285.2    53.85   230217 140526
2294.80     12.46    12.46     12.3        3     55.0    152.0 3918.690     1.09    17958   2181.1    53.85   230217 140653
2295.00      8.62     8.62     12.2        4     55.0    151.8 1762.750     1.09    17784   2006.2    31.73   230217 140815
2295.20     15.10    15.10      3.1       30     66.8    151.6 6341.290     1.09    16488    710.2    32.70   230217 141231
2295.40     47.08    47.08      5.9       30     62.9    151.4 7460.570     1.09    18713   2935.3    32.70   230217 141243
2295.60     58.77    58.77      7.8       31     60.4    151.2 7952.610     1.09    20149   4371.8    32.70   230217 141256
2295.80     58.97    58.97      9.9       30     58.5    151.0 8200.500     1.09    20939   5162.0    17.31   230217 141308
2296.00     58.99    58.99     11.1       31     56.7    150.8 8636.190     1.09    22020   6242.4    15.07   230217 141320
2296.20     58.54    58.54     12.2       30     55.7    150.6 7588.280     1.09    21828   6050.6    24.36   230217 141335
2296.40     55.12    55.12     12.4       30     54.6    150.4 7284.040     1.09    21154   5376.8    24.36   230217 141403
2296.60     26.22    26.22     12.2       30     54.8    150.2 6758.200     1.10    19538   3760.9    73.72   230217 141439
2296.80     29.82    29.82     12.1       31     55.0    150.0 7460.570     1.09    20169   4392.0    73.72   230217 141504
2297.00     31.21    31.21     12.2       30     54.9    149.8 7032.390     1.09    19991   4213.6    82.70   230217 141529
2297.20     28.87    28.87     12.2       30     54.8    149.6 6870.880     1.09    19760   3982.9    82.70   230217 141558
2297.40     26.59    26.59     12.2       30     57.0    149.4 6893.420     1.09    19674   3896.1    82.70   230217 141641
2297.60     32.31    32.31     12.2       30     56.8    149.2 6735.670     1.09    19541   3763.5    73.72   230217 141657
2297.80     41.37    41.37     12.3       30     54.9    149.0 6855.860     1.09    19884   4106.9    73.72   230217 141726
2298.00     28.55    28.55     12.1       30     54.9    148.8 6934.740     1.09    19884   4106.4    73.72   230217 141752
2298.20     30.10    30.10     12.1       30     54.8    148.6 6961.030     1.09    20032   4254.6    68.60   230217 141816
2298.40     30.10    30.10     12.2       30     54.8    148.4 6694.350     1.09    19652   3874.2    59.30   230217 141845
2298.60     28.31    28.31     12.2       30     54.8    148.2 6758.200     1.09    19882   4105.0    58.02   230217 141914
2298.80      8.20     8.20      8.7        0     60.0    175.1 2138.350     1.09    16826   1048.2    52.57   230217 143803
2299.00     18.94    18.94     11.3        0     57.7    175.0 1901.720     1.09    18253   2475.9    51.29   230217 143845
2299.20      9.75     9.75      9.2        0     58.3    174.7 1469.790     1.09    17363   1586.1    86.55   230217 144029
2299.40     11.51    11.51      9.5        0     58.4    174.6 1466.030     1.09    17731   1954.1    94.88   230217 144143
2299.60     11.50    11.50      9.4        0     59.3    174.4 2100.790     1.10    17647   1870.0    90.71   230217 144314
2299.80      6.59     6.59      7.9        0     60.2    174.0 17905.900     1.09    17449   1671.9    90.71   230217 144525
2300.00     10.48    10.48      9.7        0     58.7    174.0 17898.400     1.09    17606   1828.9    90.71   230217 144632
2300.20     11.49    11.49     10.6        0     56.9    173.8 17905.900     1.10    17830   2052.8    75.33   230217 144737
2300.40     11.17    11.17     10.5        0     58.3    173.6 17905.900     1.09    18439   2661.8    53.85   230217 144853
2300.60     12.79    12.79     11.6        4     56.9    173.4 17898.400     1.09    17380   1602.8    48.72   230217 144950
