#Pason DataHub                     Well Dossier No:    28542213
#LAS - Log ASCII Standard         Report Generated:    2023-08-31 16:35:45MDT
~VERSION INFORMATION
VERS.                                          2.0:    CWLS LOG ASCII STANDARD - VERSION 2.0
WRAP.                                           No:    ONE LINE PER DEPTH STEP
~WELL INFORMATION BLOCK
#MNEM.UNIT                                     DATA    DESCRIPTION OF MNEMONIC
#---------                                     ----    -----------------------
STRT.meters                                   0.20:    Start Depth
STOP.meters                                5659.80:    Stop Depth
STEP.meters                                   0.20:    Step Value
NULL.                                      -999.25:    NULL Value
COMP.                           Ovintiv Canada ULC:    Company
WELL.                 OVV HZ 108 WEMBLEY 1-29-71-8:    Well
FLD .                                      WEMBLEY:    Field
LOC .                               05-31-071-08W6:    Location
PROV.                                           AB:    Province
CTRY.                                       Canada:    Country
SRVC.             Precision Drilling, div of PDCLP:    Service Company
DATE.                                             :    Date
UWI .                        108/01-29-071-08W6/00:    Unique Well ID
RIG .                                Precision 535:    Rig
NUM .                                     28542213:    Well Dossier No
~CURVE INFORMATION
#MNEM.UNIT                                 API CODE    CURVE DESCRIPTION
#---------                                 --------    -----------------
DEPT .meters                                   001:      5  Hole Depth
ROP  .m/hr                                        :      3  Rate Of Penetration
OBR  .m/hr                                        :     14  On Bottom ROP
WOB  .kDaN                                        :     13  Weight on Bit
RPM  .RPM                                         :     11  Rotary RPM
HL   .kDaN                                        :      7  Hook Load
BHT  .meters                                      :     28  Block Height
TOR  .                                            :     12  Rotary Torque
TPO  .m3/min                                      :     26  Total Pump Output
SPP  .kPa                                         :      8  Standpipe Pressure
DIFP .kPa                                         :    123  Differential Pressure
GAM  .api                                         :     49  Gamma
DATE .yymmdd                                      :      0  YearMonthDay
TIME .hhmmss                                      :      0  HoursMinutesSeconds
# NOTE: Data generated with Omit Duplicate Depths enabled
~A DEPT       ROP      OBR      WOB      RPM       HL      BHT      TOR      TPO      SPP     DIFP      GAM   YYMMDD HHMMSS
# ...
5278.80     14.57    14.57     20.4       35     43.7     17.1 6788.250     1.09    22823    742.4    91.26   230224 163100
5279.00     10.94    10.94     20.3       35     43.8     16.9 7084.970     1.10    22825    744.6    85.09   230224 163209
5279.20     11.10    11.10     20.4       35     43.8     16.7 7043.660     1.10    22721    640.3    85.09   230224 163318
5279.40     11.09    11.09     20.3       35     43.8     16.5 6998.590     1.10    22780    699.9    85.09   230224 163426
5279.60     11.83    11.83     20.4       35     43.8     16.3 7163.850     1.10    22738    657.2    85.09   230224 163539
5279.80     10.48    10.48     20.4       35     43.9     16.1 7223.950     1.10    22776    695.8    87.25   230224 163648
5280.00     11.23    11.23     20.3       35     43.8     15.9 7163.850     1.10    22692    611.3    87.25   230224 163756
5280.20     10.91    10.91     20.4       35     43.9     15.7 7193.900     1.10    22926    845.5    87.25   230224 163906
5280.40     13.27    13.27     20.8       35     43.9     15.5 7122.530     1.09    22922    842.1  -999.25   230224 163957
5280.60     13.61    13.61     12.5       50     51.7     15.3 12734.000     1.09    24503   2423.0  -999.25   230224 164243
5280.80     45.81    45.81     13.5       50     50.8     15.1 13023.200     1.09    24904   2823.4  -999.25   230224 164257
5281.00     52.23    52.23     13.5       50     50.4     14.9 13793.200     1.09    25181   3100.3  -999.25   230224 164318
5281.20     38.44    38.44     13.4       51     50.5     14.7 14315.200     1.09    25256   3175.5  -999.25   230224 164338
5281.40     37.14    37.14     13.4       51     50.7     14.5 14251.400     1.09    25216   3135.3    87.25   230224 164357
5281.60     37.65    37.65     13.3       50     50.4     14.3 13778.100     1.09    25396   3315.4    87.25   230224 164417
5281.80     36.69    36.69     13.4       50     50.4     14.1 13755.600     1.09    25457   3376.5    87.25   230224 164436
5282.00     37.04    37.04     13.5       50     50.4     13.9 13564.000     1.09    25446   3365.2    87.25   230224 164456
5282.20     36.57    36.57     13.4       50     50.4     13.7 13804.400     1.09    25417   3336.5    87.25   230224 164517
5282.40     35.24    35.24     13.3       51     50.5     13.5 13781.900     1.09    25369   3288.9    87.25   230224 164537
5282.60     36.55    36.55     13.4       50     50.4     13.3 13688.000     1.09    25249   3168.7    87.25   230224 164558
5282.80     35.64    35.64     13.4       50     50.4     13.1 13338.700     1.09    25375   3294.7    87.25   230224 164619
5283.00     33.78    33.78     13.4       50     50.5     12.9 13334.900     1.10    25439   3358.8    87.25   230224 164641
5283.20     36.77    36.77     13.3       50     50.4     12.7 13263.600     1.09    25300   3220.2    87.25   230224 164700
5283.40     36.97    36.97     13.4       50     50.5     12.5 13323.700     1.09    25411   3331.0    87.25   230224 164719
5283.60     38.83    38.83     13.3       50     50.4     12.3 13334.900     1.09    25410   3329.5    85.09   230224 164738
5283.80     39.33    39.33     13.4       51     50.4     12.1 13522.700     1.10    25364   3283.9    85.09   230224 164757
5284.00     38.61    38.61     13.5       50     50.4     11.9 13278.600     1.09    25270   3189.6    85.09   230224 164817
5284.20     36.56    36.56     13.5       50     50.3     11.7 13368.700     1.09    25491   3410.6    85.09   230224 164839
5284.40     34.70    34.70     13.4       50     50.4     11.5 13252.300     1.09    25389   3308.5  -999.25   230224 164901
5284.60     19.80    19.80      6.5       50     58.3     38.4 10337.700     1.10    23642   1561.6  -999.25   230224 170752
5284.80     54.92    54.92      8.1       50     56.7     38.2 10957.400     1.10    24002   1921.5  -999.25   230224 170803
5285.00     63.55    63.55      9.4       50     55.2     38.0 11220.300     1.10    24460   2380.1  -999.25   230224 170814
5285.20     63.51    63.51     10.7       50     53.8     37.8 11772.400     1.10    24872   2791.5  -999.25   230224 170826
5285.40     63.43    63.43     11.8       50     52.5     37.6 12463.500     1.10    25315   3235.0  -999.25   230224 170837
5285.60     62.86    62.86     12.5       50     51.5     37.4 13154.600     1.10    25521   3440.2    89.10   230224 170851
5285.80     58.61    58.61     12.6       50     51.2     37.2 13372.500     1.10    25914   3833.8    89.10   230224 170909
5286.00     44.94    44.94     12.6       50     51.3     37.0 13695.500     1.10    26062   3981.8    89.10   230224 170927
5286.20     39.84    39.84     12.5       50     51.2     36.8 13338.700     1.10    26090   4009.7    89.10   230224 170946
5286.40     38.25    38.25     12.5       50     51.3     36.6 13282.300     1.10    26094   4013.2    89.10   230224 171005
5286.60     39.10    39.10     12.5       50     51.3     36.4 13252.300     1.10    26061   3981.1    89.10   230224 171023
5286.80     40.16    40.16     12.5       50     51.2     36.2 13312.400     1.10    26064   3984.1    89.10   230224 171042
5287.00     39.20    39.20     12.5       50     51.2     36.0 13432.600     1.10    26176   4095.6    89.10   230224 171101
5287.20     39.06    39.06     12.5       50     51.2     35.8 13289.900     1.10    26166   4085.5    89.10   230224 171119
5287.40     38.66    38.66     12.5       50     51.1     35.6 13342.400     1.10    26216   4135.3    91.26   230224 171138
5287.60     38.22    38.22     12.5       50     51.2     35.4 13421.300     1.10    26248   4167.4    91.26   230224 171157
5287.80     42.03    42.03     12.5       50     51.2     35.2 13428.800     1.10    26391   4310.9    91.26   230224 171213
5288.00     42.50    42.50     12.6       50     51.1     35.0 13526.500     1.10    26358   4277.9    91.26   230224 171231
5288.20     41.71    41.71     12.6       50     51.1     34.8 13564.000     1.10    26358   4277.4    93.41   230224 171249
5288.40     41.12    41.12     12.5       50     51.2     34.6 13579.100     1.10    26309   4228.8    93.41   230224 171307
5288.60     41.18    41.18     12.5       50     51.1     34.4 13488.900     1.10    26309   4228.5    93.41   230224 171325
5288.80     41.37    41.37     12.5       50     51.1     34.2 13406.300     1.10    26225   4144.9    93.41   230224 171342
5289.00     41.54    41.54     12.6       50     51.2     34.0 13537.700     1.10    26214   4133.6    93.41   230224 171400
5289.20     40.21    40.21     12.6       50     51.1     33.8 13451.400     1.10    26268   4187.6    93.41   230224 171419
5289.40     38.91    38.91     12.6       50     51.1     33.6 13365.000     1.10    26278   4197.9    93.41   230224 171438
5289.60     37.53    37.53     12.6       50     51.1     33.4 13519.000     1.10    26165   4084.8    95.26   230224 171457
5289.80     39.52    39.52     12.6       50     51.2     33.2 13462.600     1.10    26153   4072.8    95.26   230224 171515
5290.00     39.63    39.63     12.6       50     51.1     33.0 13631.600     1.10    26132   4052.1    95.26   230224 171535
5290.20     38.37    38.37     12.6       50     51.1     32.8 13458.900     1.10    26288   4207.6    95.26   230224 171553
5290.40     38.96    38.96     12.7       50     51.1     32.6 13432.600     1.10    26288   4208.2    95.26   230224 171613
5290.60     37.41    37.41     12.6       50     51.1     32.4 13582.800     1.10    26196   4115.4    95.26   230224 171632
5290.80     38.20    38.20     12.6       50     51.1     32.2 13560.300     1.10    26125   4044.6    97.73   230224 171651
5291.00     39.82    39.82     12.7       50     51.0     32.0 13582.800     1.10    26180   4099.5    97.73   230224 171709
5291.20     39.74    39.74     12.7       50     51.1     31.8 13718.000     1.10    26216   4135.6    97.73   230224 171727
5291.40     39.37    39.37     12.7       50     51.1     31.6 13883.300     1.10    26365   4284.4    97.73   230224 171746
5291.60     41.59    41.59     12.8       50     51.1     31.4 13496.400     1.10    26444   4363.5    97.73   230224 171803
