#Pason DataHub                     Well Dossier No:    28542213
#LAS - Log ASCII Standard         Report Generated:    2023-08-31 16:35:45MDT
~VERSION INFORMATION
VERS.                                          2.0:    CWLS LOG ASCII STANDARD - VERSION 2.0
WRAP.                                           No:    ONE LINE PER DEPTH STEP
~WELL INFORMATION BLOCK
#MNEM.UNIT                                     DATA    DESCRIPTION OF MNEMONIC
#---------                                     ----    -----------------------
STRT.meters                                   0.20:    Start Depth
STOP.meters                                5659.80:    Stop Depth
STEP.meters                                   0.20:    Step Value
NULL.                                      -999.25:    NULL Value
COMP.                           Ovintiv Canada ULC:    Company
WELL.                 OVV HZ 108 WEMBLEY 1-29-71-8:    Well
FLD .                                      WEMBLEY:    Field
LOC .                               05-31-071-08W6:    Location
PROV.                                           AB:    Province
CTRY.                                       Canada:    Country
SRVC.             Precision Drilling, div of PDCLP:    Service Company
DATE.                                             :    Date
UWI .                        108/01-29-071-08W6/00:    Unique Well ID
RIG .                                Precision 535:    Rig
NUM .                                     28542213:    Well Dossier No
~CURVE INFORMATION
#MNEM.UNIT                                 API CODE    CURVE DESCRIPTION
#---------                                 --------    -----------------
DEPT .meters                                   001:      5  Hole Depth
ROP  .m/hr                                        :      3  Rate Of Penetration
OBR  .m/hr                                        :     14  On Bottom ROP
WOB  .kDaN                                        :     13  Weight on Bit
RPM  .RPM                                         :     11  Rotary RPM
HL   .kDaN                                        :      7  Hook Load
BHT  .meters                                      :     28  Block Height
TOR  .                                            :     12  Rotary Torque
TPO  .m3/min                                      :     26  Total Pump Output
SPP  .kPa                                         :      8  Standpipe Pressure
DIFP .kPa                                         :    123  Differential Pressure
GAM  .api                                         :     49  Gamma
DATE .yymmdd                                      :      0  YearMonthDay
TIME .hhmmss                                      :      0  HoursMinutesSeconds
# NOTE: Data generated with Omit Duplicate Depths enabled
~A DEPT       ROP      OBR      WOB      RPM       HL      BHT      TOR      TPO      SPP     DIFP      GAM   YYMMDD HHMMSS
# ...
3781.60     26.88    26.88     13.9       51     54.5     15.5 11295.400     1.19    24464   2913.0    96.34   230221 022053
3781.80     26.41    26.41     13.7       51     54.5     15.3 11032.500     1.19    24410   2858.6    94.30   230221 022123
3782.00     25.10    25.10     13.9       51     54.6     15.1 11066.300     1.19    24442   2890.2    94.30   230221 022152
3782.20     26.31    26.31     13.7       51     54.6     14.9 10931.100     1.19    24431   2879.3    94.30   230221 022220
3782.40     26.31    26.31     13.9       51     54.4     14.7 11002.500     1.19    24566   3015.1    96.34   230221 022249
3782.60     27.10    27.10     13.8       51     54.6     14.5 11092.600     1.19    24591   3039.3    96.34   230221 022316
3782.80     29.59    29.59     13.8       51     54.6     14.3 11077.600     1.19    24876   3325.1    96.34   230221 022340
3783.00     32.19    32.19     14.0       51     54.6     14.1 10961.100     1.19    24779   3227.6   100.70   230221 022406
3783.20     29.54    29.54     13.9       51     54.5     13.9 10919.800     1.19    24672   3120.4   100.70   230221 022434
3783.40     29.71    29.71     13.8       51     54.6     13.7 10979.900     1.19    24943   3391.9   100.70   230221 022458
3783.60     33.77    33.77     13.8       51     54.6     13.5 11179.000     1.19    24916   3364.3   100.70   230221 022518
3783.80     34.36    34.36     14.0       51     54.5     13.3 11092.600     1.19    25028   3476.1   100.70   230221 022539
3784.00     34.87    34.87     14.0       51     54.4     13.1 11040.000     1.19    24918   3367.0   100.70   230221 022603
3784.20     29.86    29.86     14.0       51     54.4     12.9 11051.300     1.19    24588   3036.6   100.70   230221 022634
3784.40     25.75    25.75     14.0       51     54.6     12.7 10904.800     1.19    24518   2966.8   100.70   230221 022702
3784.60     25.84    25.84     14.0       51     54.4     12.5 10912.300     1.19    24752   3201.1   103.03   230221 022729
3784.80     29.74    29.74     14.0       51     54.4     12.3 11070.100     1.19    24706   3154.9   110.02   230221 022754
3785.00     31.11    31.11     14.0       51     54.6     12.1 11148.900     1.19    24992   3440.5   110.02   230221 022818
3785.20     31.55    31.55     14.1       51     54.5     11.9 10961.100     1.19    24944   3392.7   110.02   230221 022843
3785.40     29.93    29.93     14.1       51     54.5     11.7 11100.100     1.19    24723   3171.8   110.02   230221 022908
3785.60     29.56    29.56     14.1       51     54.4     11.5 11032.500     1.19    24758   3206.6   110.02   230221 022935
3785.80     27.47    27.47     14.0       51     54.4     11.3 10837.200     1.19    24587   3035.9   110.02   230221 023004
3786.00     26.44    26.44     14.0       51     54.3     11.1 10938.600     1.19    24580   3028.1   105.36   230221 023031
3786.20     26.44    26.44     14.0       51     54.4     10.9 10810.900     1.19    24722   3170.5   105.36   230221 023059
3786.40     27.92    27.92     14.1       51     54.5     10.7 10897.300     1.19    24689   3137.6   105.36   230221 023125
3786.60     28.33    28.33     14.0       51     54.3     10.5 10574.300     1.19    24644   3092.5   105.36   230221 023153
3786.80     27.26    27.26     14.0       51     54.3     10.3 10743.300     1.19    24591   3039.3   105.36   230221 023219
3787.00     27.79    27.79     14.0       51     54.4     10.1 10841.000     1.19    24659   3108.0   105.36   230221 023245
3787.20     29.83    29.83     14.2       51     54.4      9.9 10709.500     1.19    24658   3106.8   105.36   230221 023311
3787.40     27.74    27.74     14.0       51     54.4      9.7 10957.400     1.19    24704   3152.2   105.36   230221 023339
3787.60     29.39    29.39     14.0       51     54.4      9.5 10656.900     1.19    24736   3184.1   105.36   230221 023403
3787.80     30.69    30.69     14.2       51     54.3      9.3 10728.300     1.19    24691   3139.8   103.03   230221 023429
3788.00     28.58    28.58     14.0       51     54.4      9.1 10687.000     1.19    24542   2990.9   103.03   230221 023458
3788.20     27.96    27.96     14.0       51     54.3      8.9 10784.600     1.19    24701   3149.5   103.03   230221 023524
3788.40     29.13    29.13     14.0       51     54.4      8.7 10653.200     1.19    24630   3079.0   103.03   230221 023548
3788.60     29.93    29.93     14.0       51     54.3      8.5 10641.900     1.19    24633   3081.9   103.03   230221 023615
3788.80     27.65    27.65     14.1       51     54.3      8.3 10728.300     1.19    24616   3064.9   105.36   230221 023640
3789.00     29.07    29.07     14.1       51     54.2      8.1 10619.400     1.19    24581   3029.5   105.36   230221 023706
3789.20     28.66    28.66     14.1       51     54.2      7.9 10551.700     1.19    24685   3133.2   105.36   230221 023733
3789.40     26.59    26.59     14.1       51     54.3      7.7 10589.300     1.19    24525   2973.8   105.36   230221 023802
3789.60     26.41    26.41     14.2       51     54.3      7.5 10379.000     1.19    24498   2946.4   105.36   230221 023831
3789.80      6.80     6.80      6.3       50     60.9     34.3 7787.340     1.19    22577   1026.0   105.36   230221 024434
3790.00     30.56    30.56      8.2       50     60.1     34.2 8549.810     1.19    23171   1619.8   100.70   230221 024450
3790.20     43.93    43.93     10.0       50     58.5     34.0 9147.010     1.19    23554   2002.5   107.69   230221 024507
3790.40     44.03    44.03     11.4       50     56.5     33.8 9785.520     1.19    23919   2367.7   107.69   230221 024523
3790.60     44.00    44.00     12.7       51     55.1     33.6 10363.900     1.19    24340   2788.1   107.69   230221 024540
3790.80     43.46    43.46     13.5       51     53.9     33.4 10983.700     1.19    24809   3257.8   107.69   230221 024600
3791.00     38.96    38.96     13.6       51     53.6     33.2 11051.300     1.19    24890   3338.7   107.69   230221 024625
3791.20     30.72    30.72     13.5       51     53.6     33.0 10942.400     1.19    24813   3261.9   107.69   230221 024648
3791.40     31.21    31.21     13.5       51     53.6     32.8 10953.600     1.19    25011   3459.6   112.34   230221 024712
3791.60     31.11    31.11     13.5       51     53.6     32.6 11167.700     1.19    24972   3420.0   112.34   230221 024736
3791.80     31.33    31.33     13.5       51     53.6     32.4 10863.500     1.19    25118   3566.2   112.34   230221 024800
3792.00     31.87    31.87     13.4       51     53.6     32.2 10867.200     1.19    25066   3514.3   112.34   230221 024822
3792.20     32.66    32.66     13.5       51     53.6     32.0 10961.100     1.19    25230   3678.6   112.34   230221 024844
3792.40     33.79    33.79     13.4       51     53.6     31.8 11010.000     1.19    25267   3715.8   114.96   230221 024905
3792.60     36.06    36.06     13.6       51     53.6     31.6 11010.000     1.19    25460   3908.8   114.96   230221 024926
3792.80     35.83    35.83     13.6       51     53.5     31.4 10852.200     1.19    25346   3794.0   114.96   230221 024948
3793.00     33.13    33.13     13.5       51     53.5     31.2 10739.500     1.19    25248   3696.4   114.96   230221 025009
3793.20     34.78    34.78     13.5       51     53.5     31.0 11021.200     1.19    25290   3738.8   114.96   230221 025030
3793.40     34.61    34.61     13.5       51     53.6     30.8 10979.900     1.19    25430   3878.3   114.96   230221 025052
3793.60     35.44    35.44     13.5       51     53.5     30.6 11040.000     1.19    25599   4047.9   114.96   230221 025112
3793.80     35.61    35.61     13.5       51     53.5     30.4 10901.000     1.19    25601   4049.3   107.69   230221 025132
3794.00     38.29    38.29     13.5       50     53.4     30.2 10698.200     1.19    25610   4058.4   107.69   230221 025151
3794.20     37.43    37.43     13.5       50     53.5     30.0 10705.700     1.19    25540   3988.4   107.69   230221 025211
3794.40     37.11    37.11     13.5       51     53.4     29.8 10735.800     1.19    25473   3922.0   107.69   230221 025231
