#Pason DataHub                     Well Dossier No:    28542213
#LAS - Log ASCII Standard         Report Generated:    2023-08-31 16:35:45MDT
~VERSION INFORMATION
VERS.                                          2.0:    CWLS LOG ASCII STANDARD - VERSION 2.0
WRAP.                                           No:    ONE LINE PER DEPTH STEP
~WELL INFORMATION BLOCK
#MNEM.UNIT                                     DATA    DESCRIPTION OF MNEMONIC
#---------                                     ----    -----------------------
STRT.meters                                   0.20:    Start Depth
STOP.meters                                5659.80:    Stop Depth
STEP.meters                                   0.20:    Step Value
NULL.                                      -999.25:    NULL Value
COMP.                           Ovintiv Canada ULC:    Company
WELL.                 OVV HZ 108 WEMBLEY 1-29-71-8:    Well
FLD .                                      WEMBLEY:    Field
LOC .                               05-31-071-08W6:    Location
PROV.                                           AB:    Province
CTRY.                                       Canada:    Country
SRVC.             Precision Drilling, div of PDCLP:    Service Company
DATE.                                             :    Date
UWI .                        108/01-29-071-08W6/00:    Unique Well ID
RIG .                                Precision 535:    Rig
NUM .                                     28542213:    Well Dossier No
~CURVE INFORMATION
#MNEM.UNIT                                 API CODE    CURVE DESCRIPTION
#---------                                 --------    -----------------
DEPT .meters                                   001:      5  Hole Depth
ROP  .m/hr                                        :      3  Rate Of Penetration
OBR  .m/hr                                        :     14  On Bottom ROP
WOB  .kDaN                                        :     13  Weight on Bit
RPM  .RPM                                         :     11  Rotary RPM
HL   .kDaN                                        :      7  Hook Load
BHT  .meters                                      :     28  Block Height
TOR  .                                            :     12  Rotary Torque
TPO  .m3/min                                      :     26  Total Pump Output
SPP  .kPa                                         :      8  Standpipe Pressure
DIFP .kPa                                         :    123  Differential Pressure
GAM  .api                                         :     49  Gamma
DATE .yymmdd                                      :      0  YearMonthDay
TIME .hhmmss                                      :      0  HoursMinutesSeconds
# NOTE: Data generated with Omit Duplicate Depths enabled
~A DEPT       ROP      OBR      WOB      RPM       HL      BHT      TOR      TPO      SPP     DIFP      GAM   YYMMDD HHMMSS
# ...
5651.80     34.75    34.75     13.8       51     49.4     25.7 16366.000     1.10    27353   2955.0  -999.25   230225 090810
5652.00     33.92    33.92     13.7       51     49.3     25.5 16016.700     1.10    27639   3240.4  -999.25   230225 090831
5652.20     36.03    36.03     13.6       51     49.3     25.3 15795.100     1.10    27657   3258.2  -999.25   230225 090851
5652.40     36.47    36.47     13.5       51     49.3     25.1 15487.100     1.10    27547   3148.7  -999.25   230225 090911
5652.60     36.15    36.15     13.7       51     49.3     24.9 15874.000     1.10    27544   3145.6  -999.25   230225 090931
5652.80     35.81    35.81     13.7       51     49.2     24.7 15911.500     1.10    27585   3186.2  -999.25   230225 090952
5653.00     35.85    35.85     13.7       51     49.2     24.5 15937.800     1.10    27630   3231.3  -999.25   230225 091013
5653.20     34.18    34.18     13.8       51     49.4     24.3 16076.800     1.10    27573   3174.2  -999.25   230225 091034
5653.40     34.87    34.87     13.7       51     49.4     24.1 16264.600     1.10    27524   3125.5  -999.25   230225 091055
5653.60     36.52    36.52     13.7       51     49.4     23.9 15956.600     1.10    27602   3203.1  -999.25   230225 091115
5653.80     36.57    36.57     13.7       51     49.1     23.7 15870.200     1.10    27611   3213.0  -999.25   230225 091136
5654.00     34.55    34.55     13.7       51     49.3     23.5 15674.900     1.10    27706   3307.4  -999.25   230225 091157
5654.20     34.95    34.95     13.7       51     49.2     23.3 15708.700     1.10    27702   3303.8  -999.25   230225 091217
5654.40     35.27    35.27     13.7       51     49.2     23.1 15532.200     1.10    27654   3256.1  -999.25   230225 091239
5654.60     34.78    34.78     13.7       51     49.1     22.9 15847.700     1.10    27527   3128.5  -999.25   230225 091259
5654.80     34.82    34.82     13.7       51     49.3     22.7 15742.500     1.10    27598   3200.0  -999.25   230225 091320
5655.00     34.90    34.90     13.7       51     49.1     22.5 15765.000     1.10    27638   3239.4  -999.25   230225 091341
5655.20     34.51    34.51     13.8       51     49.2     22.3 15682.400     1.10    27612   3213.4  -999.25   230225 091403
5655.40     34.04    34.04     13.8       51     49.2     22.1 15682.400     1.10    27569   3170.9  -999.25   230225 091424
5655.60     34.43    34.43     13.7       51     49.1     21.9 15674.900     1.10    27507   3108.8  -999.25   230225 091445
5655.80     34.16    34.16     13.7       51     49.1     21.7 16850.500     1.10    27473   3074.3  -999.25   230225 091508
5656.00     32.90    32.90     13.8       51     49.4     21.5 16441.100     1.10    27486   3087.8  -999.25   230225 091530
5656.20     32.17    32.17     13.8       51     49.4     21.3 16692.800     1.10    27344   2946.1  -999.25   230225 091554
5656.40     31.50    31.50     13.7       51     49.2     21.1 15964.100     1.10    27349   2950.4  -999.25   230225 091617
5656.60     32.49    32.49     13.7       51     49.1     20.9 15753.800     1.10    27485   3086.8  -999.25   230225 091638
5656.80     34.51    34.51     13.8       51     49.1     20.7 15686.200     1.10    27517   3118.5  -999.25   230225 091700
5657.00     33.65    33.65     13.8       51     49.1     20.5 15783.800     1.10    27497   3098.3  -999.25   230225 091722
5657.20     32.27    32.27     13.8       51     49.2     20.3 16110.600     1.10    27483   3084.8  -999.25   230225 091745
5657.40     32.22    32.22     13.9       51     49.2     20.1 16185.700     1.10    27430   3031.9  -999.25   230225 091808
5657.60     31.16    31.16     13.7       51     49.1     19.9 16106.800     1.10    27489   3090.6  -999.25   230225 091832
5657.80     34.08    34.08     13.8       51     49.1     19.7 15858.900     1.10    27541   3142.3  -999.25   230225 091853
5658.00     33.94    33.94     13.9       51     49.1     19.5 16039.200     1.10    27526   3127.2  -999.25   230225 091915
5658.20     32.21    32.21     13.9       51     49.1     19.3 15746.300     1.10    27482   3083.5  -999.25   230225 091938
5658.40     32.42    32.42     13.8       51     49.0     19.1 15611.000     1.10    27457   3058.6  -999.25   230225 092001
5658.60     32.54    32.54     13.9       51     49.1     18.9 15904.000     1.10    27445   3046.6  -999.25   230225 092023
5658.80     32.51    32.51     13.9       51     49.1     18.7 15941.600     1.10    27297   2898.4  -999.25   230225 092046
5659.00     32.61    32.61     13.8       51     49.1     18.5 15847.700     1.10    27462   3064.1  -999.25   230225 092108
5659.20     32.46    32.46     14.0       51     49.1     18.3 16125.600     1.10    27504   3105.8  -999.25   230225 092132
5659.40     30.82    30.82     14.0       51     49.1     18.1 16103.100     1.10    27493   3094.5  -999.25   230225 092156
5659.60     30.99    30.99     13.9       51     49.0     17.9 15911.500     1.10    27344   2945.4  -999.25   230225 092219
5659.80     33.78    33.78     13.9       51     49.1     17.7 15708.700     1.10    27322   2923.5  -999.25   230225 092241
