#Pason DataHub                     Well Dossier No:    28542213
#LAS - Log ASCII Standard         Report Generated:    2023-08-31 16:35:45MDT
~VERSION INFORMATION
VERS.                                          2.0:    CWLS LOG ASCII STANDARD - VERSION 2.0
WRAP.                                           No:    ONE LINE PER DEPTH STEP
~WELL INFORMATION BLOCK
#MNEM.UNIT                                     DATA    DESCRIPTION OF MNEMONIC
#---------                                     ----    -----------------------
STRT.meters                                   0.20:    Start Depth
STOP.meters                                5659.80:    Stop Depth
STEP.meters                                   0.20:    Step Value
NULL.                                      -999.25:    NULL Value
COMP.                           Ovintiv Canada ULC:    Company
WELL.                 OVV HZ 108 WEMBLEY 1-29-71-8:    Well
FLD .                                      WEMBLEY:    Field
LOC .                               05-31-071-08W6:    Location
PROV.                                           AB:    Province
CTRY.                                       Canada:    Country
SRVC.             Precision Drilling, div of PDCLP:    Service Company
DATE.                                             :    Date
UWI .                        108/01-29-071-08W6/00:    Unique Well ID
RIG .                                Precision 535:    Rig
NUM .                                     28542213:    Well Dossier No
~CURVE INFORMATION
#MNEM.UNIT                                 API CODE    CURVE DESCRIPTION
#---------                                 --------    -----------------
DEPT .meters                                   001:      5  Hole Depth
ROP  .m/hr                                        :      3  Rate Of Penetration
OBR  .m/hr                                        :     14  On Bottom ROP
WOB  .kDaN                                        :     13  Weight on Bit
RPM  .RPM                                         :     11  Rotary RPM
HL   .kDaN                                        :      7  Hook Load
BHT  .meters                                      :     28  Block Height
TOR  .                                            :     12  Rotary Torque
TPO  .m3/min                                      :     26  Total Pump Output
SPP  .kPa                                         :      8  Standpipe Pressure
DIFP .kPa                                         :    123  Differential Pressure
GAM  .api                                         :     49  Gamma
DATE .yymmdd                                      :      0  YearMonthDay
TIME .hhmmss                                      :      0  HoursMinutesSeconds
# NOTE: Data generated with Omit Duplicate Depths enabled
~A DEPT       ROP      OBR      WOB      RPM       HL      BHT      TOR      TPO      SPP     DIFP      GAM   YYMMDD HHMMSS
# ...
1910.80     22.60    22.60      7.8        0     55.0    154.9 2607.850     1.20    19048   1868.7   132.38   230216 131320
1911.00     21.85    21.85      7.4        0     55.1    154.7 2341.170     1.20    19042   1862.6   126.61   230216 131353
1911.20     19.85    19.85      6.5       30     59.3    154.5 6363.830     1.10    16247   1625.2   123.73   230216 131709
1911.40     51.66    51.66      9.0       30     54.6    154.3 7269.020     1.10    18903   4281.3   141.36   230216 131718
1911.60     77.13    77.13     10.3       30     52.4    154.1 7340.380     1.10    19697   5075.2   141.36   230216 131727
1911.80     78.06    78.06     11.0       30     51.4    153.9 7400.480     1.10    19846   5224.5   132.38   230216 131737
1912.00     77.74    77.74     11.8       30     50.7    153.7 7573.250     1.10    20340   5717.9   153.86   230216 131746
1912.20     76.54    76.54     12.3       31     50.3    153.5 7595.790     1.10    20343   5721.2   153.86   230216 131758
1912.40     72.85    72.85     12.2       30     50.6    153.3 7670.910     1.10    20362   5740.6   171.49   230216 131809
1912.60     65.12    65.12     11.8       30     50.6    153.1 7648.370     1.10    20331   5708.8   164.12   230216 131819
1912.80     72.38    72.38     12.1       30     50.3    152.9 7798.610     1.10    20405   5782.7   164.12   230216 131829
1913.00     72.36    72.36     12.1       31     50.2    152.7 7768.560     1.10    20491   5868.8   126.61   230216 131840
1913.20     68.18    68.18     12.0       30     50.4    152.5 7836.170     1.10    20445   5823.4   126.61   230216 131851
1913.40     67.54    67.54     11.8       30     50.3    152.3 7749.780     1.10    20662   6040.4   126.61   230216 131901
1913.60     71.30    71.30     12.0       30     50.2    152.1 7798.610     1.10    20752   6129.8   132.38   230216 131911
1913.80     71.35    71.35     11.9       30     50.2    151.9 7869.970     1.10    20552   5930.3   132.38   230216 131921
1914.00     71.15    71.15     12.0       30     50.3    151.7 7715.980     1.10    20620   5998.5   132.38   230216 131931
1914.20     71.24    71.24     12.1       30     50.2    151.5 7839.930     1.10    20744   6122.0   132.38   230216 131942
1914.40     70.89    70.89     12.0       30     50.3    151.3 7896.270     1.10    20860   6238.6   132.38   230216 131952
1914.60     70.58    70.58     12.0       30     50.2    151.1 7824.900     1.10    20722   6100.1   129.50   230216 132002
1914.80     70.14    70.14     11.9       30     50.2    150.9 8031.480     1.10    20746   6124.1   129.50   230216 132012
1915.00     70.53    70.53     11.9       30     50.3    150.7 7903.780     1.10    20718   6096.5   129.50   230216 132022
1915.20     72.11    72.11     12.1       31     50.2    150.5 7881.240     1.10    20757   6135.2   129.50   230216 132033
1915.40     72.09    72.09     12.1       30     50.4    150.3 7993.920     1.10    20553   5931.4   135.27   230216 132043
1915.60     69.23    69.23     11.9       30     50.2    150.1 7824.900     1.10    20688   6066.1   141.36   230216 132053
1915.80     70.88    70.88     11.9       30     50.3    149.9 7971.390     1.10    20657   6035.4   141.36   230216 132103
1916.00     71.88    71.88     11.9       30     50.3    149.7 7854.950     1.10    20634   6011.7   141.36   230216 132113
1916.20     73.12    73.12     11.9       30     50.3    149.5 7731.000     1.10    20590   5968.6   141.36   230216 132123
1916.40     74.91    74.91     11.9       30     50.2    149.3 7761.050     1.10    20594   5971.8   141.36   230216 132132
1916.60     74.98    74.98     12.0       31     50.1    149.1 7689.690     1.10    20613   5991.5   141.36   230216 132143
1916.80     72.44    72.44     12.0       30     50.3    148.9 7655.880     1.10    20523   5901.4   138.15   230216 132154
1917.00     68.98    68.98     11.9       30     50.3    148.7 7565.740     1.10    20490   5868.1   132.38   230216 132204
1917.20      6.47     6.47      0.2       30     62.3    175.4 4369.400     1.09    13466  -1156.3   135.27   230216 133718
1917.40     26.27    26.27      4.0       31     62.3    175.4 6100.910     1.09    14416   -205.7   135.27   230216 133729
1917.60     59.18    59.18      7.5       30     57.0    175.2 6709.380     1.09    17438   2816.0   132.38   230216 133738
1917.80     75.98    75.98      9.0       30     54.2    175.0 7141.310     1.09    18708   4086.0   135.27   230216 133747
1918.00     78.07    78.07     10.8       31     52.7    174.8 7539.450     1.09    19100   4478.2   135.27   230216 133757
1918.20     77.69    77.69     11.5       30     50.9    174.6 7873.730     1.09    19901   5279.4   141.36   230216 133806
1918.40     75.84    75.84     11.6       30     50.5    174.4 7817.390     1.09    20382   5760.1   141.36   230216 133816
1918.60     75.89    75.89     11.8       30     50.4    174.2 7828.660     1.09    20678   6055.7   118.60   230216 133825
1918.80     76.27    76.27     11.8       30     50.2    174.0 7813.630     1.09    20703   6080.9   135.27   230216 133835
1919.00     76.27    76.27     11.9       30     50.2    173.8 7761.050     1.09    20727   6105.1   144.24   230216 133845
1919.20     75.47    75.47     11.8       30     50.3    173.6 7764.810     1.09    20742   6120.4   135.27   230216 133854
1919.40     74.37    74.37     11.8       30     50.4    173.4 7794.860     1.09    20692   6069.6   132.38   230216 133904
1919.60     76.75    76.75     11.8       30     50.4    173.2 7847.440     1.09    20770   6148.2   129.50   230216 133913
1919.80     77.21    77.21     11.9       31     50.1    173.0 8023.970     1.09    20834   6211.9   144.24   230216 133923
1920.00     76.62    76.62     12.0       30     50.3    172.8 7896.270     1.09    20515   5893.1   144.24   230216 133933
1920.20     73.10    73.10     11.8       31     50.4    172.6 7858.710     1.09    20599   5976.8    78.85   230216 133942
1920.40     74.67    74.67     12.1       30     50.1    172.4 7700.960     1.09    20370   5748.5    62.19   230216 133952
1920.60     74.64    74.64     12.2       31     50.4    172.2 7370.430     1.09    20358   5736.2    37.50   230216 134004
1920.80     70.04    70.04     11.6       30     50.6    172.0 7460.570     1.09    19899   5277.4    30.77   230216 134013
1921.00      4.83     4.83      2.8        4     59.8    171.6 4279.260     1.20    16719   -159.1    31.73   230216 134817
1921.20     19.30    19.30      5.6        8     58.9    171.6 17898.400     1.20    17337    459.4    31.73   230216 134854
1921.40     10.02    10.02      5.0       19     58.4    171.3 8771.410     1.20    17224    346.0    28.21   230216 135230
1921.60     21.95    21.95      6.3        4     57.3    171.2 10446.600     1.20    17398    520.5    28.21   230216 135303
1921.80     23.63    23.63      6.5        4     56.2    171.0 2431.320     1.20    17558    680.1    29.81   230216 135334
1922.00     23.66    23.66      6.5        3     56.1    170.8 4448.280     1.20    17555    676.9    30.77   230216 135404
1922.20     23.62    23.62      6.6        1     55.7    170.6 2266.050     1.20    17492    614.1    30.77   230216 135435
1922.40     23.66    23.66      6.6        5     56.4    170.4 3836.050     1.20    17465    587.3    30.77   230216 135506
1922.60     22.78    22.78      6.9        2     55.8    170.2 3663.280     1.20    17537    659.0    37.50   230216 135540
1922.80     22.93    22.93      6.9        4     55.6    170.0 17898.400     1.20    17693    815.3    37.50   230216 135611
1923.00     23.12    23.12      6.9        4     55.4    169.8 17898.400     1.20    17704    826.4    41.67   230216 135643
1923.20     22.54    22.54      6.6        2     55.9    169.6 17905.900     1.20    17815    937.6    37.50   230216 135715
1923.40     23.12    23.12      6.7        3     55.7    169.4 8891.600     1.20    17733    854.8    35.58   230216 135748
1923.60     22.32    22.32      6.9        3     55.6    169.2 17898.400     1.20    17663    785.0    34.62   230216 135820
