#Pason DataHub                     Well Dossier No:    28542213
#LAS - Log ASCII Standard         Report Generated:    2023-08-31 16:35:45MDT
~VERSION INFORMATION
VERS.                                          2.0:    CWLS LOG ASCII STANDARD - VERSION 2.0
WRAP.                                           No:    ONE LINE PER DEPTH STEP
~WELL INFORMATION BLOCK
#MNEM.UNIT                                     DATA    DESCRIPTION OF MNEMONIC
#---------                                     ----    -----------------------
STRT.meters                                   0.20:    Start Depth
STOP.meters                                5659.80:    Stop Depth
STEP.meters                                   0.20:    Step Value
NULL.                                      -999.25:    NULL Value
COMP.                           Ovintiv Canada ULC:    Company
WELL.                 OVV HZ 108 WEMBLEY 1-29-71-8:    Well
FLD .                                      WEMBLEY:    Field
LOC .                               05-31-071-08W6:    Location
PROV.                                           AB:    Province
CTRY.                                       Canada:    Country
SRVC.             Precision Drilling, div of PDCLP:    Service Company
DATE.                                             :    Date
UWI .                        108/01-29-071-08W6/00:    Unique Well ID
RIG .                                Precision 535:    Rig
NUM .                                     28542213:    Well Dossier No
~CURVE INFORMATION
#MNEM.UNIT                                 API CODE    CURVE DESCRIPTION
#---------                                 --------    -----------------
DEPT .meters                                   001:      5  Hole Depth
ROP  .m/hr                                        :      3  Rate Of Penetration
OBR  .m/hr                                        :     14  On Bottom ROP
WOB  .kDaN                                        :     13  Weight on Bit
RPM  .RPM                                         :     11  Rotary RPM
HL   .kDaN                                        :      7  Hook Load
BHT  .meters                                      :     28  Block Height
TOR  .                                            :     12  Rotary Torque
TPO  .m3/min                                      :     26  Total Pump Output
SPP  .kPa                                         :      8  Standpipe Pressure
DIFP .kPa                                         :    123  Differential Pressure
GAM  .api                                         :     49  Gamma
DATE .yymmdd                                      :      0  YearMonthDay
TIME .hhmmss                                      :      0  HoursMinutesSeconds
# NOTE: Data generated with Omit Duplicate Depths enabled
~A DEPT       ROP      OBR      WOB      RPM       HL      BHT      TOR      TPO      SPP     DIFP      GAM   YYMMDD HHMMSS
# ...
4530.40     35.42    35.42     14.6       50     49.0     25.9 13312.400     1.20    28156   3793.0   105.36   230222 124301
4530.60     35.65    35.65     14.6       50     48.9     25.7 13102.100     1.20    28198   3835.7   105.36   230222 124322
4530.80     37.21    37.21     14.6       50     48.9     25.5 12880.500     1.20    28237   3873.9   105.36   230222 124341
4531.00     37.96    37.96     14.6       50     48.9     25.3 12974.400     1.20    28167   3804.4   105.36   230222 124401
4531.20     36.55    36.55     14.6       50     48.9     25.1 12955.600     1.20    28188   3825.7   105.36   230222 124420
4531.40     38.22    38.22     14.7       50     48.9     24.9 13102.100     1.20    28024   3661.2   105.36   230222 124438
4531.60     38.27    38.27     14.6       50     48.9     24.7 13124.600     1.20    28000   3636.7   100.70   230222 124459
4531.80     35.74    35.74     14.7       50     48.9     24.5 13068.200     1.20    27859   3496.0  -999.25   230222 124520
4532.00     34.70    34.70     14.6       50     48.9     24.3 13105.800     1.20    27888   3524.8  -999.25   230222 124541
4532.20     35.14    35.14     14.7       50     48.9     24.1 13011.900     1.20    27896   3532.9  -999.25   230222 124601
4532.40     35.34    35.34     14.7       50     48.9     23.9 13015.700     1.20    27933   3569.8  -999.25   230222 124623
4532.60     36.72    36.72     14.7       50     48.8     23.7 13147.100     1.20    28075   3712.2  -999.25   230222 124642
4532.80     37.41    37.41     14.6       50     48.9     23.5 13158.400     1.20    28088   3724.8   100.70   230222 124702
4533.00     37.68    37.68     14.6       50     48.9     23.3 13143.400     1.20    28063   3700.4   100.70   230222 124720
4533.20     39.23    39.23     14.7       50     48.8     23.1 13211.000     1.20    28063   3699.9   100.70   230222 124740
4533.40     38.43    38.43     14.8       50     48.8     22.9 13237.300     1.20    27986   3623.7   100.70   230222 124759
4533.60     37.06    37.06     14.7       50     48.9     22.7 13004.400     1.20    27952   3589.1   100.70   230222 124819
4533.80     36.70    36.70     14.6       50     48.9     22.5 13042.000     1.20    27939   3576.5   103.03   230222 124838
4534.00     37.18    37.18     14.8       50     48.8     22.3 13150.900     1.20    27966   3603.3   103.03   230222 124858
4534.20     37.31    37.31     14.7       50     48.8     22.1 13053.200     1.20    27880   3517.3   103.03   230222 124918
4534.40     37.46    37.46     14.7       50     48.8     21.9 13248.500     1.20    27904   3540.8  -999.25   230222 124937
4534.60     37.53    37.53     14.7       50     48.8     21.7 13042.000     1.20    27907   3544.2  -999.25   230222 124956
4534.80     37.24    37.24     14.8       50     48.7     21.5 13132.100     1.20    27861   3498.6  -999.25   230222 125017
4535.00     36.13    36.13     14.8       50     48.8     21.3 13241.000     1.20    27830   3467.6  -999.25   230222 125037
4535.20     36.23    36.23     14.8       50     48.8     21.1 13094.500     1.20    27826   3463.0  -999.25   230222 125057
4535.40     36.13    36.13     14.9       50     48.7     20.9 13011.900     1.20    27832   3469.2  -999.25   230222 125117
4535.60     35.52    35.52     14.8       50     48.7     20.7 13143.400     1.20    27842   3479.3  -999.25   230222 125138
4535.80     36.87    36.87     14.8       50     48.7     20.5 13124.600     1.20    27829   3466.2  -999.25   230222 125157
4536.00     36.52    36.52     14.8       50     48.8     20.3 13143.400     1.20    27770   3406.8  -999.25   230222 125218
4536.20     35.98    35.98     14.8       50     48.7     20.1 13188.400     1.20    27786   3422.7  -999.25   230222 125238
4536.40     36.82    36.82     14.8       50     48.7     19.9 13109.600     1.20    27734   3371.2  -999.25   230222 125258
4536.60     36.52    36.52     14.9       50     48.7     19.7 13365.000     1.20    27768   3404.7  -999.25   230222 125319
4536.80     35.66    35.66     14.8       51     48.7     19.5 13338.700     1.20    27751   3387.7  -999.25   230222 125339
4537.00     35.88    35.88     14.9       51     48.8     19.3 13413.800     1.20    27821   3457.8  -999.25   230222 125359
4537.20     37.60    37.60     14.9       50     48.7     19.1 13391.300     1.20    27743   3380.6  -999.25   230222 125419
4537.40     37.33    37.33     14.9       50     48.7     18.9 13421.300     1.20    27838   3475.0  -999.25   230222 125438
4537.60     38.17    38.17     14.9       50     48.7     18.7 13500.200     1.20    27899   3536.4  -999.25   230222 125457
4537.80     38.19    38.19     14.8       50     48.7     18.5 13323.700     1.20    27943   3580.4  -999.25   230222 125516
4538.00     37.97    37.97     14.9       50     48.6     18.3 13639.200     1.20    27798   3435.7  -999.25   230222 125536
4538.20     36.67    36.67     14.9       50     48.7     18.1 13511.500     1.20    27892   3529.5  -999.25   230222 125555
4538.40     37.70    37.70     15.0       50     48.6     17.9 13567.800     1.20    27843   3480.0   100.70   230222 125615
4538.60     38.05    38.05     14.9       50     48.6     17.7 13654.200     1.20    27764   3401.3  -999.25   230222 125635
4538.80     36.20    36.20     14.9       50     48.6     17.5 13646.700     1.20    27689   3326.0  -999.25   230222 125655
4539.00     36.13    36.13     14.9       50     48.6     17.3 13819.400     1.20    27782   3419.4  -999.25   230222 125715
4539.20     35.69    35.69     14.9       50     48.6     17.1 14108.700     1.20    27852   3488.9  -999.25   230222 125736
4539.40     37.44    37.44     14.9       50     48.6     16.9 13676.700     1.20    27847   3484.4  -999.25   230222 125754
4539.60     37.73    37.73     14.9       50     48.6     16.7 13924.600     1.20    27805   3442.3  -999.25   230222 125815
4539.80     36.99    36.99     14.9       50     48.6     16.5 13905.800     1.20    27745   3382.1  -999.25   230222 125834
4540.00     37.01    37.01     15.0       50     48.6     16.3 13740.600     1.20    27773   3410.1   100.70   230222 125854
4540.20     36.65    36.65     15.0       50     48.6     16.1 13755.600     1.20    27811   3448.5   100.70   230222 125913
4540.40     36.43    36.43     14.9       50     48.5     15.9 14044.800     1.20    27800   3436.9   100.70   230222 125934
4540.60     37.55    37.55     14.9       50     48.6     15.7 13819.400     1.20    27769   3406.2   100.70   230222 125952
4540.80     38.02    38.02     14.9       50     48.5     15.5 13842.000     1.20    27744   3381.4   100.70   230222 130012
4541.00     36.31    36.31     15.0       50     48.6     15.3 13935.900     1.20    27800   3436.9   100.70   230222 130032
4541.20     36.74    36.74     15.0       50     48.6     15.1 13898.300     1.20    27836   3473.4   100.70   230222 130052
4541.40     38.02    38.02     15.0       50     48.6     14.9 13766.900     1.20    27826   3463.4    98.37   230222 130111
4541.60     38.49    38.49     15.0       50     48.6     14.7 13965.900     1.20    27687   3324.4    98.37   230222 130131
4541.80     36.50    36.50     14.9       50     48.5     14.5 14217.600     1.20    27645   3282.0    98.37   230222 130151
4542.00     35.71    35.71     15.0       50     48.5     14.3 14446.700     1.20    27670   3306.8    98.37   230222 130211
4542.20     35.37    35.37     15.1       50     48.6     14.1 14473.000     1.20    27703   3340.6    98.37   230222 130234
4542.40     33.60    33.60     15.0       50     48.6     13.9 14439.200     1.20    27597   3234.3    98.37   230222 130255
4542.60     33.67    33.67     15.0       50     48.5     13.7 14390.400     1.20    27562   3198.6    98.37   230222 130316
4542.80     34.36    34.36     15.1       50     48.5     13.5 14559.400     1.20    27466   3103.5   100.70   230222 130338
4543.00     33.03    33.03     15.1       51     48.5     13.3 14683.300     1.20    27487   3124.0   100.70   230222 130400
