#Pason DataHub                     Well Dossier No:    28542213
#LAS - Log ASCII Standard         Report Generated:    2023-08-31 16:35:45MDT
~VERSION INFORMATION
VERS.                                          2.0:    CWLS LOG ASCII STANDARD - VERSION 2.0
WRAP.                                           No:    ONE LINE PER DEPTH STEP
~WELL INFORMATION BLOCK
#MNEM.UNIT                                     DATA    DESCRIPTION OF MNEMONIC
#---------                                     ----    -----------------------
STRT.meters                                   0.20:    Start Depth
STOP.meters                                5659.80:    Stop Depth
STEP.meters                                   0.20:    Step Value
NULL.                                      -999.25:    NULL Value
COMP.                           Ovintiv Canada ULC:    Company
WELL.                 OVV HZ 108 WEMBLEY 1-29-71-8:    Well
FLD .                                      WEMBLEY:    Field
LOC .                               05-31-071-08W6:    Location
PROV.                                           AB:    Province
CTRY.                                       Canada:    Country
SRVC.             Precision Drilling, div of PDCLP:    Service Company
DATE.                                             :    Date
UWI .                        108/01-29-071-08W6/00:    Unique Well ID
RIG .                                Precision 535:    Rig
NUM .                                     28542213:    Well Dossier No
~CURVE INFORMATION
#MNEM.UNIT                                 API CODE    CURVE DESCRIPTION
#---------                                 --------    -----------------
DEPT .meters                                   001:      5  Hole Depth
ROP  .m/hr                                        :      3  Rate Of Penetration
OBR  .m/hr                                        :     14  On Bottom ROP
WOB  .kDaN                                        :     13  Weight on Bit
RPM  .RPM                                         :     11  Rotary RPM
HL   .kDaN                                        :      7  Hook Load
BHT  .meters                                      :     28  Block Height
TOR  .                                            :     12  Rotary Torque
TPO  .m3/min                                      :     26  Total Pump Output
SPP  .kPa                                         :      8  Standpipe Pressure
DIFP .kPa                                         :    123  Differential Pressure
GAM  .api                                         :     49  Gamma
DATE .yymmdd                                      :      0  YearMonthDay
TIME .hhmmss                                      :      0  HoursMinutesSeconds
# NOTE: Data generated with Omit Duplicate Depths enabled
~A DEPT       ROP      OBR      WOB      RPM       HL      BHT      TOR      TPO      SPP     DIFP      GAM   YYMMDD HHMMSS
# ...
2664.80     23.34    23.34     15.1       30     51.8    162.4 7426.770     1.10    19905   2766.7   108.34   230218 200941
2665.00     23.84    23.84     15.1       30     51.9    162.2 7381.700     1.10    19873   2734.9   108.34   230218 201011
2665.20     23.15    23.15     15.1       30     51.9    162.0 7494.380     1.10    19942   2803.6   108.34   230218 201043
2665.40     24.51    24.51     15.0       30     51.8    161.8 7449.300     1.10    19899   2760.7   108.34   230218 201112
2665.60     24.75    24.75     15.1       30     51.8    161.6 7539.450     1.10    19949   2811.3   108.34   230218 201144
2665.80     24.13    24.13     15.1       30     51.7    161.4 7592.030     1.10    19950   2811.6   108.34   230218 201214
2666.00     23.76    23.76     15.1       30     51.8    161.2 7456.820     1.10    19860   2722.4   108.34   230218 201246
2666.20     24.26    24.26     15.1       30     51.8    161.0 7468.090     1.10    19845   2707.1   108.34   230218 201316
2666.40     23.67    23.67     15.1       30     51.9    160.8 7445.550     1.10    19939   2800.8   108.34   230218 201348
2666.60     23.30    23.30     15.1       30     51.8    160.6 7479.350     1.10    19943   2804.7   110.91   230218 201418
2666.80     24.50    24.50     15.1       30     51.9    160.4 7475.600     1.10    19994   2856.1   110.91   230218 201450
2667.00     12.67    12.67     10.3       30     58.3    160.1 6547.870     1.10    18379   1240.9   110.91   230218 202353
2667.20     37.25    37.25     13.0       30     56.1    160.0 6837.080     1.10    18862   1724.3   110.91   230218 202412
2667.40     39.08    39.08     14.8       30     53.5    159.8 7580.760     1.10    19723   2584.9   106.10   230218 202432
2667.60     37.11    37.11     15.2       30     51.8    159.6 7539.450     1.10    19983   2844.8   106.10   230218 202502
2667.80     23.83    23.83     15.1       30     51.8    159.4 7494.380     1.10    19957   2819.0   106.10   230218 202533
2668.00     23.81    23.81     15.1       30     51.9    159.2 7464.330     1.10    19915   2776.8   106.10   230218 202605
2668.20     24.46    24.46     15.1       30     51.8    159.0 7434.280     1.10    19906   2767.8   108.34   230218 202636
2668.40     22.70    22.70     15.1       30     51.8    158.8 7389.210     1.10    19859   2720.5   108.34   230218 202708
2668.60     23.63    23.63     15.1       30     51.8    158.6 7490.620     1.10    19909   2771.2   106.10   230218 202738
2668.80     23.85    23.85     15.0       30     51.8    158.4 7460.570     1.10    19915   2776.5   108.34   230218 202810
2669.00     23.09    23.09     15.1       30     51.8    158.2 7411.750     1.10    19927   2788.7   106.10   230218 202842
2669.20     23.29    23.29     15.0       30     51.8    158.0 7438.040     1.10    19962   2823.6   103.86   230218 202914
2669.40     23.58    23.58     15.0       30     51.8    157.8 7434.280     1.10    19898   2760.4   106.10   230218 202944
2669.60     23.42    23.42     15.1       30     51.8    157.6 7389.210     1.10    19868   2730.1   106.10   230218 203017
2669.80     23.16    23.16     15.1       30     51.8    157.4 7381.700     1.10    19917   2778.7   106.10   230218 203049
2670.00     22.19    22.19     15.1       30     51.8    157.2 7287.800     1.10    19800   2661.9   106.10   230218 203123
2670.20     22.44    22.44     15.1       30     51.8    157.0 7325.360     1.10    19712   2574.2   106.10   230218 203156
2670.40     22.22    22.22     15.0       30     51.8    156.8 7299.070     1.10    19740   2601.6   106.10   230218 203229
2670.60     22.74    22.74     15.1       30     51.8    156.6 7276.530     1.10    19642   2504.1   103.86   230218 203301
2670.80     22.45    22.45     15.1       30     51.8    156.4 7197.650     1.10    19645   2506.5   103.86   230218 203336
2671.00     21.92    21.92     15.1       30     51.8    156.2 7310.330     1.10    19716   2577.9   103.86   230218 203409
2671.20     22.86    22.86     15.1       30     51.9    156.0 7306.580     1.10    19664   2525.9   106.10   230218 203442
2671.40     22.90    22.90     15.1       30     51.8    155.8 7182.630     1.10    19687   2549.2   106.10   230218 203515
2671.60     23.01    23.01     15.0       30     51.8    155.6 7238.970     1.10    19713   2575.1   110.91   230218 203546
2671.80     23.34    23.34     15.0       30     51.8    155.4 7235.210     1.10    19657   2518.9   110.91   230218 203618
2672.00     22.41    22.41     15.0       30     51.8    155.2 7272.770     1.10    19633   2494.7   110.91   230218 203652
2672.20     22.50    22.50     15.1       30     51.8    155.0 7347.890     1.10    19744   2606.2   110.91   230218 203723
2672.40     23.42    23.42     15.0       30     51.8    154.8 7377.940     1.10    19769   2630.8   110.91   230218 203755
2672.60     23.68    23.68     15.0       30     51.8    154.6 7385.450     1.10    19897   2759.2   113.47   230218 203826
2672.80     23.50    23.50     15.0       30     51.8    154.4 7419.260     1.10    19934   2795.5   113.47   230218 203857
2673.00     24.18    24.18     15.0       30     51.7    154.2 7441.790     1.10    19924   2786.4   113.47   230218 203927
2673.20     23.69    23.69     15.1       30     51.8    154.0 7430.530     1.10    19904   2765.4   113.47   230218 203959
2673.40     25.59    25.59     15.1       30     51.8    153.8 7475.600     1.10    19882   2743.7   113.47   230218 204030
2673.60     24.98    24.98     15.0       30     51.9    153.6 7498.130     1.10    19868   2729.8   113.47   230218 204059
2673.80     24.96    24.96     15.1       30     51.9    153.4 7445.550     1.10    19794   2656.0   113.47   230218 204129
2674.00     23.64    23.64     15.1       30     51.8    153.2 7430.530     1.10    19823   2684.4   113.47   230218 204201
2674.20     23.62    23.62     15.1       30     51.8    153.0 7370.430     1.10    19723   2585.3   113.47   230218 204232
2674.40     23.82    23.82     15.0       30     51.8    152.8 7306.580     1.10    19726   2588.0   116.04   230218 204303
2674.60     23.62    23.62     15.1       30     51.8    152.6 7400.480     1.10    19727   2589.2   116.04   230218 204335
2674.80     23.94    23.94     15.1       30     51.8    152.4 7546.960     1.10    19726   2587.7   116.04   230218 204407
2675.00     22.98    22.98     15.0       30     51.7    152.2 7494.380     1.10    19669   2530.9   121.17   230218 204439
2675.20     22.48    22.48     15.0       30     51.8    152.0 7347.890     1.10    19605   2466.8   121.17   230218 204512
2675.40     22.35    22.35     15.0       30     51.8    151.8 7430.530     1.10    19726   2587.4   121.17   230218 204544
2675.60     23.57    23.57     15.0       30     51.8    151.6 7438.040     1.10    19780   2641.5   121.17   230218 204615
2675.80     23.60    23.60     15.1       30     51.8    151.4 7490.620     1.10    19781   2642.9   121.17   230218 204647
2676.00     24.14    24.14     15.1       30     51.8    151.2 7475.600     1.10    19769   2630.6   121.17   230218 204717
2676.20     24.00    24.00     15.1       30     51.7    151.0 7471.840     1.10    19762   2623.9   121.17   230218 204749
2676.40     23.98    23.98     15.0       30     51.9    150.8 7516.910     1.10    19795   2657.2   121.17   230218 204820
2676.60     23.98    23.98     15.0       30     51.8    150.6 7449.300     1.10    19782   2643.3   121.17   230218 204851
2676.80     23.78    23.78     15.1       30     51.8    150.4 7479.350     1.10    19860   2721.5   126.61   230218 204923
2677.00     24.75    24.75     15.0       30     51.8    150.2 7389.210     1.10    19985   2847.2   126.61   230218 204952
2677.20     24.63    24.63     15.1       30     51.8    150.0 7385.450     1.10    19847   2709.1   126.61   230218 205025
2677.40     24.27    24.27     15.1       30     51.8    149.8 7370.430     1.10    19942   2803.6   126.61   230218 205054
2677.60     24.28    24.28     15.0       30     51.8    149.6 7332.870     1.10    19868   2729.7   126.61   230218 205127
