#Pason DataHub                     Well Dossier No:    28542213
#LAS - Log ASCII Standard         Report Generated:    2023-08-31 16:35:45MDT
~VERSION INFORMATION
VERS.                                          2.0:    CWLS LOG ASCII STANDARD - VERSION 2.0
WRAP.                                           No:    ONE LINE PER DEPTH STEP
~WELL INFORMATION BLOCK
#MNEM.UNIT                                     DATA    DESCRIPTION OF MNEMONIC
#---------                                     ----    -----------------------
STRT.meters                                   0.20:    Start Depth
STOP.meters                                5659.80:    Stop Depth
STEP.meters                                   0.20:    Step Value
NULL.                                      -999.25:    NULL Value
COMP.                           Ovintiv Canada ULC:    Company
WELL.                 OVV HZ 108 WEMBLEY 1-29-71-8:    Well
FLD .                                      WEMBLEY:    Field
LOC .                               05-31-071-08W6:    Location
PROV.                                           AB:    Province
CTRY.                                       Canada:    Country
SRVC.             Precision Drilling, div of PDCLP:    Service Company
DATE.                                             :    Date
UWI .                        108/01-29-071-08W6/00:    Unique Well ID
RIG .                                Precision 535:    Rig
NUM .                                     28542213:    Well Dossier No
~CURVE INFORMATION
#MNEM.UNIT                                 API CODE    CURVE DESCRIPTION
#---------                                 --------    -----------------
DEPT .meters                                   001:      5  Hole Depth
ROP  .m/hr                                        :      3  Rate Of Penetration
OBR  .m/hr                                        :     14  On Bottom ROP
WOB  .kDaN                                        :     13  Weight on Bit
RPM  .RPM                                         :     11  Rotary RPM
HL   .kDaN                                        :      7  Hook Load
BHT  .meters                                      :     28  Block Height
TOR  .                                            :     12  Rotary Torque
TPO  .m3/min                                      :     26  Total Pump Output
SPP  .kPa                                         :      8  Standpipe Pressure
DIFP .kPa                                         :    123  Differential Pressure
GAM  .api                                         :     49  Gamma
DATE .yymmdd                                      :      0  YearMonthDay
TIME .hhmmss                                      :      0  HoursMinutesSeconds
# NOTE: Data generated with Omit Duplicate Depths enabled
~A DEPT       ROP      OBR      WOB      RPM       HL      BHT      TOR      TPO      SPP     DIFP      GAM   YYMMDD HHMMSS
# ...
403.20     137.56   137.56     12.7       51     22.4    150.4 10664.400     3.21    20238   4188.0  -999.25   230214 190420
403.40     136.93   136.93     12.7       51     22.2    150.2 10754.600     3.21    20262   4211.9  -999.25   230214 190426
403.60     135.14   135.14     13.0       51     22.0    150.0 10142.300     3.21    20280   4229.5  -999.25   230214 190432
403.80     132.14   132.14     12.9       51     22.1    149.8 10454.100     3.21    20641   4590.3  -999.25   230214 190437
404.00    -999.25  -999.25  -999.25  -999.25  -999.25  -999.25  -999.25  -999.25  -999.25  -999.25  -999.25   230214 190437
404.20    -999.25  -999.25  -999.25  -999.25  -999.25  -999.25  -999.25  -999.25  -999.25  -999.25  -999.25   230214 190437
404.40    -999.25  -999.25  -999.25  -999.25  -999.25  -999.25  -999.25  -999.25  -999.25  -999.25  -999.25   230214 190437
404.60    -999.25  -999.25  -999.25  -999.25  -999.25  -999.25  -999.25  -999.25  -999.25  -999.25  -999.25   230214 190437
404.80    -999.25  -999.25  -999.25  -999.25  -999.25  -999.25  -999.25  -999.25  -999.25  -999.25  -999.25   230214 190437
405.00    -999.25  -999.25  -999.25  -999.25  -999.25  -999.25  -999.25  -999.25  -999.25  -999.25  -999.25   230214 190437
405.20    -999.25  -999.25  -999.25  -999.25  -999.25  -999.25  -999.25  -999.25  -999.25  -999.25  -999.25   230214 190437
405.40    -999.25  -999.25  -999.25  -999.25  -999.25  -999.25  -999.25  -999.25  -999.25  -999.25  -999.25   230214 190437
405.60    -999.25  -999.25  -999.25  -999.25  -999.25  -999.25  -999.25  -999.25  -999.25  -999.25  -999.25   230214 190437
405.80    -999.25  -999.25  -999.25  -999.25  -999.25  -999.25  -999.25  -999.25  -999.25  -999.25  -999.25   230214 190437
406.00    -999.25  -999.25  -999.25  -999.25  -999.25  -999.25  -999.25  -999.25  -999.25  -999.25  -999.25   230214 190437
406.20      26.30    26.30      5.6       50     36.4    177.5 6097.150     3.23    17678   1627.6  -999.25   230214 191155
406.40      60.89    60.89      8.3       50     28.0    177.2 7543.200     3.23    19639   3589.1  -999.25   230214 191203
406.60      82.24    82.24     10.4       50     26.3    177.0 9383.630     3.23    20074   4024.1  -999.25   230214 191212
406.80      82.41    82.41     12.4       51     23.6    176.8 10424.000     3.22    20544   4493.2  -999.25   230214 191222
407.00      80.06    80.06     11.4       51     28.4    176.6 10698.200     3.23    20566   4516.2  -999.25   230214 191231
407.20      80.47    80.47      6.6       51     28.5    176.4 7148.830     3.23    19432   3381.7  -999.25   230214 191239
407.40      83.30    83.30      6.4       51     29.1    176.2 7280.290     3.22    19391   3341.0  -999.25   230214 191248
407.60      83.50    83.50      6.1       51     28.9    176.0 7479.350     3.22    19630   3579.8  -999.25   230214 191256
407.80      83.42    83.42      6.4       51     28.4    175.8 7614.570     3.23    19880   3829.2  -999.25   230214 191305
408.00      83.42    83.42      7.1       51     28.2    175.6 7806.120     3.23    20078   4027.4  -999.25   230214 191314
408.20      83.44    83.44      6.3       51     28.8    175.4 7137.560     3.23    20108   4057.5  -999.25   230214 191322
408.40      83.44    83.44      5.9       51     29.1    175.2 6979.810     3.23    19648   3597.3  -999.25   230214 191331
408.60      83.45    83.45      6.4       51     28.9    175.0 7261.510     3.23    19811   3760.6  -999.25   230214 191340
408.80      83.42    83.42      7.7       51     28.6    174.8 8117.870     3.23    20144   4093.7  -999.25   230214 191348
409.00      83.32    83.32      8.6       51     27.3    174.6 8362.010     3.23    20154   4103.7  -999.25   230214 191357
409.20      83.44    83.44      7.9       51     29.4    174.4 7347.890     3.23    20170   4119.8  -999.25   230214 191405
409.40      83.57    83.57      5.5       51     29.5    174.2 6852.100     3.23    19460   3409.1  -999.25   230214 191414
409.60      84.00    84.00      7.1       51     29.5    174.0 7404.230     3.23    19756   3705.2  -999.25   230214 191422
409.80      87.67    87.67      7.3       51     27.6    173.8 7903.780     3.23    20002   3951.8  -999.25   230214 191429
410.00      95.30    95.30      9.2       50     26.9    173.6 8823.990     3.22    20359   4308.5  -999.25   230214 191435
410.20     104.97   104.97      9.5       51     25.3    173.4 9199.590     3.23    20497   4446.8  -999.25   230214 191441
410.40     113.13   113.13      9.6       51     25.5    173.2 9270.950     3.22    20657   4606.7  -999.25   230214 191447
410.60     116.98   116.98      9.6       51     25.6    173.0 9312.270     3.23    20642   4591.9  -999.25   230214 191454
410.80     117.81   117.81      9.1       51     25.8    172.8 9560.170     3.23    20398   4347.8  -999.25   230214 191500
411.00     117.83   117.83     12.5       51     25.7    172.6 10596.800     3.23    20698   4647.6  -999.25   230214 191507
411.20     115.32   115.32     12.5       51     23.0    172.4 11633.500     3.22    21046   4995.2  -999.25   230214 191514
411.40     106.49   106.49     11.9       51     24.1    172.2 9267.200     3.23    20846   4795.9  -999.25   230214 191521
411.60     104.57   104.57     10.6       51     24.5    172.0 8891.600     3.23    20461   4410.3  -999.25   230214 191527
411.80     112.97   112.97     11.1       51     24.2    171.8 9537.630     3.23    20437   4386.8  -999.25   230214 191533
412.00     117.03   117.03     12.6       50     24.0    171.6 10161.100     3.22    20634   4583.9  -999.25   230214 191539
412.20     117.03   117.03     12.9       51     22.9    171.4 10435.300     3.22    21278   5227.3  -999.25   230214 191546
412.40     115.03   115.03     13.2       51     22.7    171.2 10318.900     3.23    21293   5242.5  -999.25   230214 191552
412.60     111.85   111.85     12.8       51     23.3    171.0 10086.000     3.22    21130   5079.4  -999.25   230214 191558
412.80     114.34   114.34     11.4       51     23.8    170.8 8609.900     3.23    20874   4824.1  -999.25   230214 191604
413.00     119.23   119.23     10.9       50     24.3    170.6 8223.040     3.23    20290   4239.8  -999.25   230214 191610
413.20     124.32   124.32     10.8       50     24.4    170.4 8241.820     3.23    20368   4318.1  -999.25   230214 191615
413.40     126.73   126.73     11.3       50     24.1    170.2 9466.270     3.23    20256   4205.4  -999.25   230214 191621
413.60     127.57   127.57     11.5       51     23.3    170.0 10942.400     3.22    20995   4945.0  -999.25   230214 191627
413.80     127.52   127.52     12.1       51     23.1    169.8 10957.400     3.22    21497   5446.8  -999.25   230214 191632
414.00     127.50   127.50     12.8       51     22.3    169.6 10656.900     3.23    21539   5488.7  -999.25   230214 191638
414.20     126.79   126.79     13.0       51     21.9    169.4 10735.800     3.22    21448   5397.1  -999.25   230214 191644
414.40     124.25   124.25     13.2       51     22.4    169.2 10848.500     3.23    21462   5411.8  -999.25   230214 191651
414.60     120.49   120.49     12.9       51     22.3    169.0 10938.600     3.22    21732   5681.6  -999.25   230214 191657
414.80     117.98   117.98     13.1       50     22.0    168.8 10476.600     3.23    21621   5571.0  -999.25   230214 191703
415.00     116.80   116.80     13.1       50     22.4    168.6 10713.200     3.22    21368   5317.4  -999.25   230214 191709
415.20     116.38   116.38     12.7       51     22.5    168.4 10762.100     3.23    21740   5689.4  -999.25   230214 191715
415.40     118.27   118.27     13.0       51     22.2    168.2 11194.000     3.22    21748   5697.5  -999.25   230214 191721
415.60     120.06   120.06     13.0       50     22.2    168.0 10949.900     3.23    21533   5482.9  -999.25   230214 191727
415.80     120.74   120.74     12.8       51     23.5    167.8 11374.300     3.23    21930   5879.1  -999.25   230214 191733
416.00     121.63   121.63     11.2       51     24.7    167.6 9834.350     3.22    21777   5726.3  -999.25   230214 191738
