#Pason DataHub                     Well Dossier No:    28542213
#LAS - Log ASCII Standard         Report Generated:    2023-08-31 16:35:45MDT
~VERSION INFORMATION
VERS.                                          2.0:    CWLS LOG ASCII STANDARD - VERSION 2.0
WRAP.                                           No:    ONE LINE PER DEPTH STEP
~WELL INFORMATION BLOCK
#MNEM.UNIT                                     DATA    DESCRIPTION OF MNEMONIC
#---------                                     ----    -----------------------
STRT.meters                                   0.20:    Start Depth
STOP.meters                                5659.80:    Stop Depth
STEP.meters                                   0.20:    Step Value
NULL.                                      -999.25:    NULL Value
COMP.                           Ovintiv Canada ULC:    Company
WELL.                 OVV HZ 108 WEMBLEY 1-29-71-8:    Well
FLD .                                      WEMBLEY:    Field
LOC .                               05-31-071-08W6:    Location
PROV.                                           AB:    Province
CTRY.                                       Canada:    Country
SRVC.             Precision Drilling, div of PDCLP:    Service Company
DATE.                                             :    Date
UWI .                        108/01-29-071-08W6/00:    Unique Well ID
RIG .                                Precision 535:    Rig
NUM .                                     28542213:    Well Dossier No
~CURVE INFORMATION
#MNEM.UNIT                                 API CODE    CURVE DESCRIPTION
#---------                                 --------    -----------------
DEPT .meters                                   001:      5  Hole Depth
ROP  .m/hr                                        :      3  Rate Of Penetration
OBR  .m/hr                                        :     14  On Bottom ROP
WOB  .kDaN                                        :     13  Weight on Bit
RPM  .RPM                                         :     11  Rotary RPM
HL   .kDaN                                        :      7  Hook Load
BHT  .meters                                      :     28  Block Height
TOR  .                                            :     12  Rotary Torque
TPO  .m3/min                                      :     26  Total Pump Output
SPP  .kPa                                         :      8  Standpipe Pressure
DIFP .kPa                                         :    123  Differential Pressure
GAM  .api                                         :     49  Gamma
DATE .yymmdd                                      :      0  YearMonthDay
TIME .hhmmss                                      :      0  HoursMinutesSeconds
# NOTE: Data generated with Omit Duplicate Depths enabled
~A DEPT       ROP      OBR      WOB      RPM       HL      BHT      TOR      TPO      SPP     DIFP      GAM   YYMMDD HHMMSS
# ...
3405.80     34.63    34.63     12.4       50     53.3     30.9 8602.390     1.19    23005   3757.7   100.70   230220 103130
3406.00     34.21    34.21     12.5       50     53.2     30.7 8730.090     1.19    22955   3707.3   100.70   230220 103151
3406.20     33.57    33.57     12.4       50     53.2     30.5 8572.340     1.19    22992   3745.0   100.70   230220 103214
3406.40     33.01    33.01     12.5       51     53.3     30.3 8662.490     1.19    22970   3722.8    98.37   230220 103235
3406.60     32.89    32.89     12.4       51     53.2     30.1 8771.410     1.19    23019   3771.8    98.37   230220 103258
3406.80     13.63    13.63     10.6       50     55.8     29.8 7787.340     1.19    21748   2500.4    92.26   230220 103522
3407.00     44.19    44.19     12.4       50     54.3     29.7 8606.150     1.19    22341   3093.3    92.26   230220 103535
3407.20     54.42    54.42     12.8       51     53.1     29.5 8876.580     1.19    22929   3681.9    92.26   230220 103558
3407.40     34.04    34.04     12.5       51     53.2     29.3 8797.700     1.19    22891   3643.5    89.93   230220 103620
3407.60     34.85    34.85     12.4       51     53.2     29.1 8850.280     1.19    22972   3724.3    89.93   230220 103641
3407.80     34.54    34.54     12.6       51     53.2     28.9 8865.310     1.19    22907   3660.0    89.93   230220 103703
3408.00     33.35    33.35     12.5       50     53.1     28.7 8899.110     1.19    22836   3588.4    92.26   230220 103725
3408.20     33.72    33.72     12.5       50     53.1     28.5 8996.770     1.19    22875   3628.0    92.26   230220 103747
3408.40     32.76    32.76     12.6       50     53.1     28.3 8906.620     1.19    22865   3617.8    94.30   230220 103810
3408.60     31.43    31.43     12.5       51     53.1     28.1 8854.040     1.19    22785   3537.3    94.30   230220 103833
3408.80     33.86    33.86     12.5       51     53.1     27.9 8884.090     1.19    22776   3529.0    94.30   230220 103854
3409.00     33.88    33.88     12.5       50     53.1     27.7 8846.530     1.19    22732   3484.4    94.30   230220 103918
3409.20     30.99    30.99     12.6       51     53.0     27.5 8823.990     1.19    22676   3428.5    94.30   230220 103942
3409.40     30.94    30.94     12.6       51     53.1     27.3 8895.360     1.19    22742   3494.9    94.30   230220 104005
3409.60     31.90    31.90     12.7       51     53.1     27.1 9049.350     1.19    22751   3503.3    94.30   230220 104029
3409.80     31.85    31.85     12.5       51     53.1     26.9 8917.890     1.19    22753   3505.8    94.30   230220 104051
3410.00     33.43    33.43     12.6       50     53.1     26.7 8947.940     1.19    22724   3476.3    94.30   230220 104113
3410.20     32.76    32.76     12.6       50     53.0     26.5 8786.430     1.19    22730   3482.4    92.26   230220 104137
3410.40     30.69    30.69     12.6       51     53.0     26.3 8760.140     1.19    22596   3348.4    92.26   230220 104201
3410.60     30.23    30.23     12.6       50     53.1     26.1 8643.710     1.19    22508   3260.7    92.26   230220 104225
3410.80     31.60    31.60     12.6       51     53.1     25.9 8692.530     1.19    22614   3367.1    92.26   230220 104248
3411.00     31.26    31.26     12.6       50     53.0     25.7 8737.610     1.19    22654   3406.3    92.26   230220 104312
3411.20     31.26    31.26     12.6       51     53.1     25.5 8707.560     1.19    22687   3439.6    86.15   230220 104334
3411.40     31.83    31.83     12.8       51     53.0     25.3 8711.310     1.19    22583   3335.7    86.15   230220 104359
3411.60     28.77    28.77     12.6       51     53.0     25.1 8726.340     1.19    22613   3365.4    92.26   230220 104425
3411.80     28.38    28.38     12.8       50     53.1     24.9 8782.680     1.19    22485   3237.9    92.26   230220 104450
3412.00     31.48    31.48     12.8       51     52.9     24.7 8775.170     1.19    22564   3316.5    92.26   230220 104515
3412.20     29.79    29.79     12.7       51     53.0     24.5 8756.380     1.19    22571   3323.5    92.26   230220 104540
3412.40     29.61    29.61     12.7       51     53.0     24.3 8906.620     1.19    22584   3336.9    88.19   230220 104605
3412.60     29.17    29.17     12.7       51     53.0     24.1 8748.870     1.19    22614   3366.2    88.19   230220 104630
3412.80     29.02    29.02     12.7       50     52.9     23.9 8715.070     1.19    22596   3348.5    88.19   230220 104655
3413.00     32.56    32.56     12.7       50     53.0     23.7 8737.610     1.19    22613   3365.9    89.93   230220 104717
3413.20     32.76    32.76     12.7       51     53.0     23.5 8854.040     1.19    22624   3376.5    89.93   230220 104741
3413.40     30.25    30.25     12.7       51     52.9     23.3 8917.890     1.19    22558   3310.1    94.30   230220 104807
3413.60     28.58    28.58     12.7       51     52.9     23.1 8771.410     1.19    22456   3209.0    94.30   230220 104832
3413.80     28.28    28.28     12.8       51     52.9     22.9 8880.330     1.19    22382   3134.5    94.30   230220 104859
3414.00     30.15    30.15     12.7       51     52.9     22.7 8906.620     1.19    22526   3278.4    94.30   230220 104923
3414.20     30.18    30.18     12.8       51     52.9     22.5 9004.280     1.19    22516   3268.9  -999.25   230220 104947
3414.40     30.82    30.82     12.8       50     52.9     22.3 8921.650     1.19    22507   3259.8  -999.25   230220 105012
3414.60     29.58    29.58     12.7       51     52.9     22.1 8955.450     1.19    22650   3402.4  -999.25   230220 105036
3414.80     29.68    29.68     12.8       50     52.9     21.9 8775.170     1.19    22538   3290.3  -999.25   230220 105102
3415.00     29.17    29.17     12.8       51     52.9     21.7 8857.800     1.19    22455   3208.1  -999.25   230220 105126
3415.20     29.44    29.44     13.0       51     52.9     21.5 8959.210     1.19    22458   3210.9  -999.25   230220 105153
3415.40     28.82    28.82     12.8       51     52.9     21.3 8962.960     1.19    22560   3312.3  -999.25   230220 105218
3415.60     28.85    28.85     12.9       51     52.9     21.1 8857.800     1.19    22461   3213.8  -999.25   230220 105244
3415.80     27.74    27.74     12.9       51     52.9     20.9 8786.430     1.19    22502   3254.5    94.30   230220 105311
3416.00     28.33    28.33     12.8       51     52.9     20.7 8917.890     1.19    22490   3242.3    94.30   230220 105336
3416.20     29.98    29.98     12.9       51     52.9     20.5 8733.850     1.19    22456   3208.3    94.30   230220 105401
3416.40     28.72    28.72     12.9       51     52.9     20.3 8857.800     1.19    22454   3207.0    92.26   230220 105428
3416.60     28.09    28.09     13.0       51     52.9     20.1 8767.650     1.19    22504   3256.3    89.93   230220 105453
3416.80     28.31    28.31     12.9       51     52.9     19.9 8823.990     1.19    22475   3227.8    89.93   230220 105519
3417.00     28.48    28.48     12.9       50     52.8     19.7 8726.340     1.19    22544   3296.8    88.19   230220 105544
3417.20     30.28    30.28     12.9       51     52.9     19.5 8835.260     1.19    22584   3336.8    84.11   230220 105608
3417.40     30.13    30.13     12.9       51     52.9     19.3 8977.990     1.19    22680   3432.3    89.93   230220 105632
3417.60     30.05    30.05     13.0       51     52.7     19.1 8895.360     1.19    22670   3422.5    89.93   230220 105659
3417.80     29.31    29.31     12.9       51     52.9     18.9 8880.330     1.19    22706   3458.3    89.93   230220 105723
3418.00     30.64    30.64     12.9       51     52.9     18.7 8835.260     1.19    22765   3517.7    89.93   230220 105746
3418.20     32.14    32.14     12.9       51     52.8     18.5 8902.870     1.19    22826   3578.4    89.93   230220 105808
3418.40     32.05    32.05     12.9       51     52.8     18.3 8955.450     1.19    22875   3627.6    89.93   230220 105832
3418.60     31.58    31.58     12.9       51     52.8     18.1 8955.450     1.19    22897   3650.1    89.93   230220 105855
