#Pason DataHub                     Well Dossier No:    28542213
#LAS - Log ASCII Standard         Report Generated:    2023-08-31 16:35:45MDT
~VERSION INFORMATION
VERS.                                          2.0:    CWLS LOG ASCII STANDARD - VERSION 2.0
WRAP.                                           No:    ONE LINE PER DEPTH STEP
~WELL INFORMATION BLOCK
#MNEM.UNIT                                     DATA    DESCRIPTION OF MNEMONIC
#---------                                     ----    -----------------------
STRT.meters                                   0.20:    Start Depth
STOP.meters                                5659.80:    Stop Depth
STEP.meters                                   0.20:    Step Value
NULL.                                      -999.25:    NULL Value
COMP.                           Ovintiv Canada ULC:    Company
WELL.                 OVV HZ 108 WEMBLEY 1-29-71-8:    Well
FLD .                                      WEMBLEY:    Field
LOC .                               05-31-071-08W6:    Location
PROV.                                           AB:    Province
CTRY.                                       Canada:    Country
SRVC.             Precision Drilling, div of PDCLP:    Service Company
DATE.                                             :    Date
UWI .                        108/01-29-071-08W6/00:    Unique Well ID
RIG .                                Precision 535:    Rig
NUM .                                     28542213:    Well Dossier No
~CURVE INFORMATION
#MNEM.UNIT                                 API CODE    CURVE DESCRIPTION
#---------                                 --------    -----------------
DEPT .meters                                   001:      5  Hole Depth
ROP  .m/hr                                        :      3  Rate Of Penetration
OBR  .m/hr                                        :     14  On Bottom ROP
WOB  .kDaN                                        :     13  Weight on Bit
RPM  .RPM                                         :     11  Rotary RPM
HL   .kDaN                                        :      7  Hook Load
BHT  .meters                                      :     28  Block Height
TOR  .                                            :     12  Rotary Torque
TPO  .m3/min                                      :     26  Total Pump Output
SPP  .kPa                                         :      8  Standpipe Pressure
DIFP .kPa                                         :    123  Differential Pressure
GAM  .api                                         :     49  Gamma
DATE .yymmdd                                      :      0  YearMonthDay
TIME .hhmmss                                      :      0  HoursMinutesSeconds
# NOTE: Data generated with Omit Duplicate Depths enabled
~A DEPT       ROP      OBR      WOB      RPM       HL      BHT      TOR      TPO      SPP     DIFP      GAM   YYMMDD HHMMSS
# ...
1533.80     66.99    66.99     10.2       31     44.2    152.3 6236.120     1.10    14719   4944.5   103.86   230216 051913
1534.00     68.15    68.15     10.2       30     44.3    152.1 6408.900     1.10    14658   4882.8   113.47   230216 051924
1534.20     67.56    67.56     10.1       30     44.3    151.9 6405.140     1.10    14813   5038.6   113.47   230216 051934
1534.40     71.49    71.49     10.2       31     44.2    151.7 6484.020     1.10    14765   4990.3   113.47   230216 051944
1534.60     73.09    73.09     10.3       31     44.2    151.4 6592.940     1.10    14681   4906.4   113.47   230216 051953
1534.80     73.73    73.73     10.1       30     44.4    151.3 6480.260     1.10    14843   5068.2   113.47   230216 052003
1535.00     77.51    77.51     10.1       30     44.3    151.0 6495.290     1.10    14986   5211.4   126.61   230216 052011
1535.20     82.01    82.01     10.1       30     44.4    150.9 6604.210     1.10    15034   5258.9   126.61   230216 052020
1535.40     85.11    85.11     10.2       30     44.2    150.6 6544.110     1.10    15040   5265.0   126.61   230216 052028
1535.60     86.02    86.02     10.6       31     44.3    150.5 6758.200     1.10    15222   5446.8   126.61   230216 052037
1535.80     85.47    85.47     10.5       30     44.5    150.2 6694.350     1.10    15019   5243.7  -999.25   230216 052045
1536.00     84.15    84.15      9.8       30     44.6    150.1 6435.190     1.10    15043   5268.5  -999.25   230216 052053
1536.20     91.41    91.41      9.9       30     44.4    149.8 6551.630     1.10    15107   5332.4  -999.25   230216 052100
1536.40     96.88    96.88      9.9       30     44.4    149.7 6472.750     1.10    14983   5208.2  -999.25   230216 052108
1536.60     98.01    98.01     10.2       30     44.4    149.4 6510.310     1.10    15065   5290.3  -999.25   230216 052115
1536.80     97.96    97.96     10.8       31     44.1    149.2 6927.220     1.10    15152   5377.6  -999.25   230216 052124
1537.00     14.22    14.22      0.6       30     56.4    176.0 4699.930     1.10    10140    364.8  -999.25   230216 052625
1537.20     40.04    40.04      2.2       30     53.6    175.9 4827.630     1.10    11668   1893.3  -999.25   230216 052640
1537.40     48.80    48.80      2.7       30     52.0    175.7 5086.790     1.10    12233   2458.0  -999.25   230216 052655
1537.60     49.06    49.06      2.7       30     51.6    175.5 5037.970     1.10    12305   2530.1  -999.25   230216 052710
1537.80     50.09    50.09      3.9       30     51.6    175.3 5383.520     1.10    12407   2632.2   118.60   230216 052723
1538.00     56.44    56.44      4.1       30     50.4    175.1 5451.120     1.10    12716   2940.7   118.60   230216 052735
1538.20     58.69    58.69      5.4       31     50.4    174.8 5353.470     1.10    12690   2915.4   118.60   230216 052747
1538.40     58.73    58.73      7.1       30     48.5    174.7 6037.060     1.10    13157   3381.8   118.60   230216 052800
1538.60     58.59    58.59      7.0       30     48.9    174.5 6022.030     1.10    13991   4216.3   118.60   230216 052812
1538.80     59.28    59.28      5.5       30     50.2    174.3 5710.290     1.10    13809   4034.3   121.17   230216 052824
1539.00     63.80    63.80      4.9       30     50.0    174.1 5620.140     1.10    12902   3127.2   121.17   230216 052834
1539.20     68.25    68.25      5.2       30     49.2    173.8 5623.900     1.10    13122   3346.8   121.17   230216 052845
1539.40     68.69    68.69      5.8       31     48.9    173.7 5868.040     1.10    13339   3564.3   121.17   230216 052855
1539.60     68.86    68.86      6.9       30     48.7    173.5 5781.650     1.10    13292   3517.1   121.17   230216 052905
1539.80     70.29    70.29      8.7       30     47.1    173.3 5946.910     1.10    13705   3930.3   121.17   230216 052914
1540.00     76.64    76.64      9.6       30     45.4    173.1 6435.190     1.10    14501   4726.3  -999.25   230216 052923
1540.20     83.10    83.10     10.0       30     44.6    172.8 6299.970     1.10    14709   4934.0  -999.25   230216 052931
1540.40     84.83    84.83     10.3       31     44.2    172.7 7588.280     1.10    14757   4982.3  -999.25   230216 052940
1540.60     84.38    84.38     10.8       31     44.6    172.5 7824.900     1.10    15483   5708.0  -999.25   230216 052950
1540.80     79.96    79.96     10.0       30     44.4    172.2 6638.010     1.10    15215   5440.1  -999.25   230216 052958
1541.00     84.56    84.56     10.3       30     44.1    172.1 6649.280     1.10    14967   5192.4  -999.25   230216 053007
1541.20     85.00    85.00     10.5       30     44.1    171.9 6716.890     1.10    14877   5102.4   121.17   230216 053017
1541.40     80.18    80.18     10.1       31     44.8    171.7 6683.090     1.10    14931   5156.3   121.17   230216 053025
1541.60     80.42    80.42     10.0       30     44.3    171.4 6735.670     1.10    15059   5283.9   121.17   230216 053033
1541.80     87.41    87.41     10.1       30     44.3    171.2 6976.050     1.10    15267   5492.5   121.17   230216 053041
1542.00     91.76    91.76     10.0       30     44.4    171.1 6724.400     1.10    15363   5588.1   121.17   230216 053048
1542.20     94.54    94.54     10.3       30     44.4    170.9 6713.130     1.10    15279   5504.5  -999.25   230216 053056
1542.40     94.63    94.63     10.5       30     44.1    170.7 6645.530     1.10    15065   5290.3  -999.25   230216 053105
1542.60     91.39    91.39     10.2       30     44.4    170.5 6675.570     1.10    15238   5462.7  -999.25   230216 053113
1542.80     86.08    86.08     10.3       30     44.6    170.3 6765.720     1.10    15368   5593.5  -999.25   230216 053121
1543.00     89.13    89.13     10.5       31     44.1    170.1 6942.250     1.10    15196   5420.7  -999.25   230216 053130
1543.20     88.96    88.96     10.2       31     44.6    169.9 6675.570     1.10    15257   5482.4  -999.25   230216 053138
1543.40     86.10    86.10     10.4       30     44.3    169.7 6664.300     1.10    15231   5456.1    99.05   230216 053146
1543.60     86.91    86.91     10.6       31     44.2    169.5 6653.040     1.10    14937   5162.2    99.05   230216 053157
1543.80     82.75    82.75     10.4       30     44.0    169.3 6375.100     1.10    14866   5090.9    99.05   230216 053208
1544.00     69.26    69.26     10.2       30     44.4    169.1 6363.830     1.10    14636   4861.1    99.05   230216 053219
1544.20     66.52    66.52     10.1       30     44.4    168.9 6333.780     1.10    14677   4902.3    84.62   230216 053229
1544.40     71.59    71.59     10.1       30     44.3    168.7 6450.210     1.10    14715   4940.2    84.62   230216 053239
1544.60     74.62    74.62     10.1       31     44.6    168.5 6792.010     1.10    15035   5260.6    84.62   230216 053248
1544.80     76.95    76.95     10.6       30     44.0    168.3 6145.980     1.10    14867   5092.5    84.62   230216 053259
1545.00     76.43    76.43     10.4       30     44.2    168.1 6288.710     1.10    14423   4648.2    84.62   230216 053310
1545.20     66.71    66.71     10.2       30     44.6    167.9 6577.920     1.10    14493   4718.4    90.71   230216 053320
1545.40     70.58    70.58     10.2       30     44.6    167.7 6393.870     1.10    14715   4940.6    90.71   230216 053329
1545.60     73.21    73.21     10.3       30     44.3    167.5 6615.480     1.10    14725   4949.9   144.24   230216 053340
1545.80     73.43    73.43      9.9       30     44.5    167.3 6773.230     1.10    15112   5336.7  -999.25   230216 053348
1546.00     80.25    80.25     10.2       31     44.5    167.1 6701.870     1.10    15174   5399.3  -999.25   230216 053357
1546.20     83.99    83.99     10.9       31     43.9    166.8 6784.500     1.10    15132   5357.7  -999.25   230216 053410
1546.40     77.45    77.45     10.5       31     44.4    166.7 6082.130     1.10    14693   4918.2  -999.25   230216 053420
1546.60     64.25    64.25     10.1       30     44.5    166.5 6626.750     1.10    14692   4917.1  -999.25   230216 053430
