#Pason DataHub                     Well Dossier No:    28542213
#LAS - Log ASCII Standard         Report Generated:    2023-08-31 16:35:45MDT
~VERSION INFORMATION
VERS.                                          2.0:    CWLS LOG ASCII STANDARD - VERSION 2.0
WRAP.                                           No:    ONE LINE PER DEPTH STEP
~WELL INFORMATION BLOCK
#MNEM.UNIT                                     DATA    DESCRIPTION OF MNEMONIC
#---------                                     ----    -----------------------
STRT.meters                                   0.20:    Start Depth
STOP.meters                                5659.80:    Stop Depth
STEP.meters                                   0.20:    Step Value
NULL.                                      -999.25:    NULL Value
COMP.                           Ovintiv Canada ULC:    Company
WELL.                 OVV HZ 108 WEMBLEY 1-29-71-8:    Well
FLD .                                      WEMBLEY:    Field
LOC .                               05-31-071-08W6:    Location
PROV.                                           AB:    Province
CTRY.                                       Canada:    Country
SRVC.             Precision Drilling, div of PDCLP:    Service Company
DATE.                                             :    Date
UWI .                        108/01-29-071-08W6/00:    Unique Well ID
RIG .                                Precision 535:    Rig
NUM .                                     28542213:    Well Dossier No
~CURVE INFORMATION
#MNEM.UNIT                                 API CODE    CURVE DESCRIPTION
#---------                                 --------    -----------------
DEPT .meters                                   001:      5  Hole Depth
ROP  .m/hr                                        :      3  Rate Of Penetration
OBR  .m/hr                                        :     14  On Bottom ROP
WOB  .kDaN                                        :     13  Weight on Bit
RPM  .RPM                                         :     11  Rotary RPM
HL   .kDaN                                        :      7  Hook Load
BHT  .meters                                      :     28  Block Height
TOR  .                                            :     12  Rotary Torque
TPO  .m3/min                                      :     26  Total Pump Output
SPP  .kPa                                         :      8  Standpipe Pressure
DIFP .kPa                                         :    123  Differential Pressure
GAM  .api                                         :     49  Gamma
DATE .yymmdd                                      :      0  YearMonthDay
TIME .hhmmss                                      :      0  HoursMinutesSeconds
# NOTE: Data generated with Omit Duplicate Depths enabled
~A DEPT       ROP      OBR      WOB      RPM       HL      BHT      TOR      TPO      SPP     DIFP      GAM   YYMMDD HHMMSS
# ...
3028.80     38.32    38.32     13.1       50     47.2     16.1 8707.560     1.10    19681   4349.6   103.03   230219 213530
3029.00     37.98    37.98     13.1       51     47.2     15.9 8737.610     1.10    19669   4337.9   105.36   230219 213550
3029.20     36.99    36.99     13.2       50     47.2     15.7 8801.460     1.10    19613   4281.4   105.36   230219 213609
3029.40     37.83    37.83     13.1       50     47.2     15.5 8673.750     1.10    19582   4250.7   105.36   230219 213628
3029.60     38.59    38.59     13.2       50     47.1     15.3 8730.090     1.10    19648   4316.6   105.36   230219 213647
3029.80     38.44    38.44     13.2       50     47.1     15.1 8677.510     1.10    19765   4433.8   100.70   230219 213708
3030.00     37.19    37.19     13.2       50     47.2     14.9 8715.070     1.10    19795   4464.2   100.70   230219 213727
3030.20     37.36    37.36     13.3       51     47.1     14.7 8715.070     1.10    19801   4469.9   100.70   230219 213747
3030.40     35.59    35.59     13.2       50     47.2     14.5 8602.390     1.10    19682   4350.8   105.36   230219 213807
3030.60     37.09    37.09     13.2       50     47.2     14.3 8583.610     1.10    19560   4229.2   105.36   230219 213827
3030.80     37.14    37.14     13.2       50     47.1     14.1 8673.750     1.10    19622   4290.7   107.69   230219 213846
3031.00     36.88    36.88     13.3       50     47.1     13.9 8606.150     1.10    19665   4333.6   107.69   230219 213907
3031.20     35.91    35.91     13.3       50     47.2     13.7 8576.100     1.10    19611   4280.0   107.69   230219 213927
3031.40     36.11    36.11     13.2       50     47.1     13.5 8553.560     1.10    19542   4211.3   107.69   230219 213947
3031.60     37.63    37.63     13.2       50     47.1     13.3 8624.930     1.10    19540   4209.4   107.69   230219 214007
3031.80     36.64    36.64     13.2       50     47.1     13.1 8651.220     1.10    19514   4182.3   105.36   230219 214026
3032.00     38.27    38.27     13.3       51     47.0     12.9 8688.780     1.10    19600   4269.3   105.36   230219 214046
3032.20     37.18    37.18     13.3       50     47.1     12.7 8606.150     1.10    19573   4242.2   105.36   230219 214106
3032.40     36.16    36.16     13.2       50     47.1     12.5 8572.340     1.10    19540   4209.1   103.03   230219 214126
3032.60     37.24    37.24     13.3       50     47.1     12.3 8557.320     1.10    19574   4242.4   103.03   230219 214145
3032.80     37.46    37.46     13.4       51     47.1     12.1 8639.950     1.10    19550   4218.6   100.70   230219 214205
3033.00     35.94    35.94     13.3       51     47.0     11.9 8658.730     1.10    19590   4258.6   100.70   230219 214226
3033.20     35.39    35.39     13.3       51     47.0     11.7 8914.140     1.10    19564   4233.4    98.37   230219 214246
3033.40     35.32    35.32     13.4       50     46.9     11.5 8621.170     1.10    19537   4206.0    98.37   230219 214308
3033.60     34.87    34.87     13.3       51     47.1     11.3 8576.100     1.10    19450   4118.9    98.37   230219 214328
3033.80     35.51    35.51     13.3       50     47.0     11.1 8609.900     1.10    19479   4147.8   103.03   230219 214348
3034.00     35.61    35.61     13.3       50     47.0     10.9 8549.810     1.10    19491   4159.8   107.69   230219 214409
3034.20     34.38    34.38     13.4       50     46.9     10.7 8531.030     1.10    19399   4068.2   107.69   230219 214430
3034.40     34.83    34.83     13.4       50     46.9     10.5 8583.610     1.10    19423   4091.8   107.69   230219 214451
3034.60     35.66    35.66     13.3       50     46.9     10.3 8617.420     1.10    19409   4077.7   107.69   230219 214511
3034.80     35.88    35.88     13.3       50     46.9     10.1 8598.630     1.10    19473   4141.9   107.69   230219 214531
3035.00     36.70    36.70     13.3       51     47.0      9.9 8583.610     1.10    19496   4165.1   107.69   230219 214551
3035.20     36.36    36.36     13.4       50     46.9      9.7 8621.170     1.10    19522   4190.8   107.69   230219 214612
3035.40     35.02    35.02     13.4       50     46.9      9.5 8609.900     1.10    19481   4149.5   105.36   230219 214633
3035.60     35.71    35.71     13.4       50     46.9      9.3 8700.040     1.10    19527   4196.1   105.36   230219 214652
3035.80     37.55    37.55     13.5       51     47.0      9.1 8756.380     1.10    19516   4184.8   105.36   230219 214712
3036.00     37.31    37.31     13.4       50     46.9      8.9 8583.610     1.10    19514   4182.7   105.36   230219 214732
3036.20     36.69    36.69     13.4       50     46.9      8.7 8647.460     1.10    19548   4216.8   103.03   230219 214752
3036.40     36.79    36.79     13.4       51     46.9      8.5 8628.680     1.10    19531   4199.7   103.03   230219 214812
3036.60     35.70    35.70     13.5       50     46.9      8.3 8568.590     1.10    19495   4164.1   103.03   230219 214834
3036.80     35.78    35.78     13.5       50     47.0      8.0 8621.170     1.10    19324   3993.0   103.03   230219 214855
3037.00     18.67    18.67      8.6       50     53.8     36.8 7197.650     1.10    16787   1455.8   103.03   230219 215429
3037.20     47.44    47.44     10.3       50     51.2     36.6 7783.590     1.10    18264   2933.3   103.03   230219 215445
3037.40     47.64    47.64     11.7       50     49.5     36.4 8313.180     1.10    18771   3439.6   103.03   230219 215459
3037.60     47.76    47.76     12.5       50     48.3     36.2 8632.440     1.10    19207   3875.7   103.03   230219 215517
3037.80     44.15    44.15     12.4       50     47.9     36.0 8816.480     1.10    19430   4099.1   103.03   230219 215536
3038.00     37.17    37.17     12.4       50     47.9     35.8 8827.750     1.10    19582   4250.7   100.70   230219 215556
3038.20     36.33    36.33     12.4       50     47.9     35.6 8726.340     1.10    19621   4289.8   100.70   230219 215616
3038.40     38.19    38.19     12.4       50     47.9     35.4 8801.460     1.10    19599   4267.4    98.37   230219 215635
3038.60     38.42    38.42     12.4       50     48.0     35.2 8816.480     1.10    19604   4273.1    98.37   230219 215654
3038.80     38.44    38.44     12.5       50     47.9     35.0 8816.480     1.10    19625   4294.0    98.37   230219 215714
3039.00     38.22    38.22     12.4       50     47.9     34.8 8793.940     1.10    19612   4281.3    98.37   230219 215732
3039.20     38.81    38.81     12.5       50     47.8     34.6 9045.600     1.10    19749   4417.7    98.37   230219 215751
3039.40     38.02    38.02     12.6       50     47.9     34.4 8895.360     1.10    19714   4382.7    98.37   230219 215810
3039.60     38.02    38.02     12.5       50     47.9     34.2 8966.720     1.10    19698   4367.0   100.70   230219 215829
3039.80     38.49    38.49     12.5       50     47.9     34.0 8921.650     1.10    19727   4395.8   103.03   230219 215848
3040.00     38.19    38.19     12.6       50     47.9     33.8 8962.960     1.10    19648   4316.5   103.03   230219 215909
3040.20     35.91    35.91     12.5       50     47.8     33.6 8869.070     1.10    19672   4341.1   103.03   230219 215928
3040.40     36.55    36.55     12.5       50     47.8     33.4 8835.260     1.10    19691   4360.1   103.03   230219 215948
3040.60     36.33    36.33     12.5       50     47.9     33.2 8812.730     1.10    19634   4303.1   103.03   230219 220008
3040.80     36.79    36.79     12.5       50     47.8     33.0 8884.090     1.10    19694   4362.5   100.70   230219 220028
3041.00     36.89    36.89     12.5       50     47.8     32.8 8857.800     1.10    19695   4363.6   107.69   230219 220048
3041.20     36.52    36.52     12.6       50     47.8     32.6 8929.160     1.10    19689   4358.1   107.69   230219 220108
3041.40     35.78    35.78     12.6       50     47.8     32.4 8914.140     1.10    19586   4254.9   107.69   230219 220128
3041.60     37.14    37.14     12.6       50     47.9     32.2 8951.700     1.10    19685   4354.3   107.69   230219 220147
