#Pason DataHub                     Well Dossier No:    28542213
#LAS - Log ASCII Standard         Report Generated:    2023-08-31 16:35:45MDT
~VERSION INFORMATION
VERS.                                          2.0:    CWLS LOG ASCII STANDARD - VERSION 2.0
WRAP.                                           No:    ONE LINE PER DEPTH STEP
~WELL INFORMATION BLOCK
#MNEM.UNIT                                     DATA    DESCRIPTION OF MNEMONIC
#---------                                     ----    -----------------------
STRT.meters                                   0.20:    Start Depth
STOP.meters                                5659.80:    Stop Depth
STEP.meters                                   0.20:    Step Value
NULL.                                      -999.25:    NULL Value
COMP.                           Ovintiv Canada ULC:    Company
WELL.                 OVV HZ 108 WEMBLEY 1-29-71-8:    Well
FLD .                                      WEMBLEY:    Field
LOC .                               05-31-071-08W6:    Location
PROV.                                           AB:    Province
CTRY.                                       Canada:    Country
SRVC.             Precision Drilling, div of PDCLP:    Service Company
DATE.                                             :    Date
UWI .                        108/01-29-071-08W6/00:    Unique Well ID
RIG .                                Precision 535:    Rig
NUM .                                     28542213:    Well Dossier No
~CURVE INFORMATION
#MNEM.UNIT                                 API CODE    CURVE DESCRIPTION
#---------                                 --------    -----------------
DEPT .meters                                   001:      5  Hole Depth
ROP  .m/hr                                        :      3  Rate Of Penetration
OBR  .m/hr                                        :     14  On Bottom ROP
WOB  .kDaN                                        :     13  Weight on Bit
RPM  .RPM                                         :     11  Rotary RPM
HL   .kDaN                                        :      7  Hook Load
BHT  .meters                                      :     28  Block Height
TOR  .                                            :     12  Rotary Torque
TPO  .m3/min                                      :     26  Total Pump Output
SPP  .kPa                                         :      8  Standpipe Pressure
DIFP .kPa                                         :    123  Differential Pressure
GAM  .api                                         :     49  Gamma
DATE .yymmdd                                      :      0  YearMonthDay
TIME .hhmmss                                      :      0  HoursMinutesSeconds
# NOTE: Data generated with Omit Duplicate Depths enabled
~A DEPT       ROP      OBR      WOB      RPM       HL      BHT      TOR      TPO      SPP     DIFP      GAM   YYMMDD HHMMSS
# ...
4905.20     58.58    58.58     10.3       50     53.6     37.1 13500.200     1.10    25425   4010.2    97.73   230224 015931
4905.40     58.66    58.66     10.5       50     53.3     36.9 13481.400     1.10    25553   4138.7    97.73   230224 015944
4905.60     58.58    58.58     10.8       50     53.0     36.7 13665.400     1.10    25636   4221.5    99.89   230224 015956
4905.80     58.66    58.66     11.0       50     52.6     36.5 13894.600     1.10    25699   4284.5  -999.25   230224 020008
4906.00     58.59    58.59     11.2       50     52.6     36.3 13868.300     1.10    25894   4479.7  -999.25   230224 020020
4906.20     58.51    58.51     11.4       50     52.5     36.1 14311.500     1.10    25967   4552.1  -999.25   230224 020033
4906.40     58.51    58.51     11.3       50     52.5     35.9 14379.100     1.10    26023   4607.9  -999.25   230224 020045
4906.60     58.63    58.63     11.4       50     52.4     35.7 14014.800     1.10    26126   4711.6  -999.25   230224 020057
4906.80     58.73    58.73     11.5       50     52.3     35.5 13943.400     1.10    26124   4709.1  -999.25   230224 020109
4907.00     58.62    58.62     11.4       50     52.3     35.3 14078.600     1.10    26146   4731.0  -999.25   230224 020122
4907.20     58.78    58.78     11.4       50     52.4     35.1 14112.400     1.10    26160   4745.3   104.20   230224 020135
4907.40     58.80    58.80     11.3       50     52.4     34.9 14063.600     1.10    26196   4780.8   104.20   230224 020147
4907.60     58.83    58.83     11.4       51     52.4     34.7 14315.200     1.10    26241   4826.4   104.20   230224 020159
4907.80     58.80    58.80     11.4       50     52.3     34.5 14397.900     1.10    26201   4786.2   104.20   230224 020211
4908.00     58.80    58.80     11.4       50     52.3     34.3 14243.900     1.10    26198   4783.0   104.20   230224 020224
4908.20     58.78    58.78     11.4       50     52.4     34.1 14176.300     1.10    26232   4817.1   104.20   230224 020236
4908.40     58.88    58.88     11.2       50     52.5     33.9 13977.200     1.10    26329   4914.3   104.20   230224 020248
4908.60     58.88    58.88     11.1       50     52.6     33.7 14236.400     1.10    26334   4919.0   104.20   230224 020300
4908.80     58.85    58.85     11.2       50     52.6     33.5 14232.600     1.10    26278   4863.5   106.67   230224 020313
4909.00     58.83    58.83     11.4       50     52.5     33.3 14221.300     1.10    26302   4887.8   106.67   230224 020325
4909.20     58.83    58.83     11.2       50     52.5     33.1 14153.700     1.10    26334   4918.9   106.67   230224 020337
4909.40     58.81    58.81     11.2       50     52.6     32.9 14026.000     1.10    26348   4933.4   106.67   230224 020349
4909.60     58.78    58.78     11.2       50     52.5     32.7 14029.800     1.10    26284   4869.6   106.67   230224 020402
4909.80     58.83    58.83     11.4       50     52.4     32.5 13977.200     1.10    26257   4842.5   106.67   230224 020414
4910.00     58.81    58.81     11.5       50     52.3     32.3 13875.800     1.10    26231   4816.5   106.67   230224 020426
4910.20     58.83    58.83     11.4       50     52.3     32.1 14146.200     1.10    26280   4865.6   106.67   230224 020438
4910.40     58.84    58.84     11.5       50     52.3     31.9 13819.400     1.10    26292   4877.1   106.67   230224 020450
4910.60     58.85    58.85     11.5       50     52.3     31.7 13965.900     1.10    26270   4854.9   106.67   230224 020503
4910.80     58.73    58.73     11.7       50     52.1     31.5 14018.500     1.10    26226   4810.7   104.20   230224 020515
4911.00     58.74    58.74     11.5       50     52.2     31.3 14052.300     1.10    26316   4901.0  -999.25   230224 020527
4911.20     58.83    58.83     11.6       50     52.2     31.1 14063.600     1.10    26352   4937.5  -999.25   230224 020539
4911.40     58.83    58.83     11.4       50     52.3     30.9 14172.500     1.10    26363   4947.8  -999.25   230224 020552
4911.60     58.81    58.81     11.4       50     52.4     30.7 14074.900     1.10    26407   4992.0  -999.25   230224 020604
4911.80     58.76    58.76     11.4       50     52.4     30.5 14033.500     1.10    26498   5083.6  -999.25   230224 020616
4912.00     58.83    58.83     11.4       50     52.3     30.3 14007.200     1.10    26471   5055.9  -999.25   230224 020628
4912.20     58.81    58.81     11.5       50     52.3     30.1 14153.700     1.10    26442   5026.8   104.20   230224 020640
4912.40     58.85    58.85     11.5       50     52.3     29.9 14037.300     1.10    26544   5129.5   104.20   230224 020653
4912.60     58.78    58.78     11.5       51     52.4     29.7 14142.500     1.10    26589   5173.8   104.20   230224 020705
4912.80     58.86    58.86     11.5       50     52.3     29.5 14221.300     1.10    26495   5080.0  -999.25   230224 020717
4913.00     58.78    58.78     11.6       50     52.1     29.3 14003.500     1.10    26537   5122.0  -999.25   230224 020730
4913.20     58.83    58.83     11.7       50     52.2     29.1 14108.700     1.10    26633   5218.1  -999.25   230224 020742
4913.40     58.86    58.86     11.4       50     52.3     28.9 13766.900     1.10    26618   5203.3  -999.25   230224 020754
4913.60     58.88    58.88     11.4       50     52.4     28.7 13815.700     1.10    26634   5219.1  -999.25   230224 020806
4913.80     58.87    58.87     11.3       50     52.4     28.5 13785.600     1.10    26665   5250.2   106.67   230224 020818
4914.00     58.77    58.77     11.4       50     52.6     28.3 13965.900     1.10    26783   5368.6   106.67   230224 020831
4914.20     58.78    58.78     11.2       50     52.6     28.1 13928.400     1.10    26644   5229.4   106.67   230224 020843
4914.40     58.16    58.16     11.1       50     52.6     27.9 13789.400     1.10    26656   5240.8   106.67   230224 020856
4914.60     59.10    59.10     11.0       50     52.7     27.7 13556.500     1.10    26596   5181.8   106.67   230224 020908
4914.80     59.10    59.10     11.0       50     52.8     27.5 13868.300     1.10    26559   5144.1   106.67   230224 020920
4915.00     59.13    59.13     11.0       50     52.7     27.3 13567.800     1.10    26753   5338.5   106.67   230224 020932
4915.20     59.08    59.08     11.1       50     52.6     27.1 13706.800     1.10    26706   5291.7   106.67   230224 020944
4915.40     59.02    59.02     11.0       50     52.7     26.9 13406.300     1.10    26701   5286.6   106.67   230224 020956
4915.60     59.13    59.13     11.1       50     52.6     26.7 13503.900     1.10    26638   5223.5  -999.25   230224 021009
4915.80     59.18    59.18     11.1       50     52.7     26.5 13511.500     1.10    26635   5220.3  -999.25   230224 021021
4916.00     59.08    59.08     11.1       50     52.6     26.3 13342.400     1.10    26685   5270.0  -999.25   230224 021033
4916.20     59.05    59.05     11.2       50     52.5     26.1 13402.500     1.10    26711   5296.4  -999.25   230224 021045
4916.40     59.08    59.08     11.1       50     52.6     25.9 13526.500     1.10    26730   5314.8  -999.25   230224 021058
4916.60     59.08    59.08     11.1       50     52.6     25.7 13428.800     1.10    26605   5189.9  -999.25   230224 021110
4916.80     59.05    59.05     11.2       50     52.5     25.5 13473.900     1.10    26629   5214.6  -999.25   230224 021122
4917.00     59.00    59.00     11.4       50     52.3     25.3 13552.800     1.10    26605   5190.0  -999.25   230224 021134
4917.20     59.15    59.15     11.6       50     52.2     25.1 13827.000     1.10    26815   5400.1  -999.25   230224 021147
4917.40     59.08    59.08     11.6       50     52.3     24.9 13699.300     1.10    26945   5530.2  -999.25   230224 021159
4917.60     59.05    59.05     11.6       50     52.3     24.7 13718.000     1.10    27007   5592.4  -999.25   230224 021211
4917.80     59.08    59.08     11.5       50     52.2     24.5 13590.300     1.10    27021   5606.7  -999.25   230224 021223
