#Pason DataHub                     Well Dossier No:    28542213
#LAS - Log ASCII Standard         Report Generated:    2023-08-31 16:35:45MDT
~VERSION INFORMATION
VERS.                                          2.0:    CWLS LOG ASCII STANDARD - VERSION 2.0
WRAP.                                           No:    ONE LINE PER DEPTH STEP
~WELL INFORMATION BLOCK
#MNEM.UNIT                                     DATA    DESCRIPTION OF MNEMONIC
#---------                                     ----    -----------------------
STRT.meters                                   0.20:    Start Depth
STOP.meters                                5659.80:    Stop Depth
STEP.meters                                   0.20:    Step Value
NULL.                                      -999.25:    NULL Value
COMP.                           Ovintiv Canada ULC:    Company
WELL.                 OVV HZ 108 WEMBLEY 1-29-71-8:    Well
FLD .                                      WEMBLEY:    Field
LOC .                               05-31-071-08W6:    Location
PROV.                                           AB:    Province
CTRY.                                       Canada:    Country
SRVC.             Precision Drilling, div of PDCLP:    Service Company
DATE.                                             :    Date
UWI .                        108/01-29-071-08W6/00:    Unique Well ID
RIG .                                Precision 535:    Rig
NUM .                                     28542213:    Well Dossier No
~CURVE INFORMATION
#MNEM.UNIT                                 API CODE    CURVE DESCRIPTION
#---------                                 --------    -----------------
DEPT .meters                                   001:      5  Hole Depth
ROP  .m/hr                                        :      3  Rate Of Penetration
OBR  .m/hr                                        :     14  On Bottom ROP
WOB  .kDaN                                        :     13  Weight on Bit
RPM  .RPM                                         :     11  Rotary RPM
HL   .kDaN                                        :      7  Hook Load
BHT  .meters                                      :     28  Block Height
TOR  .                                            :     12  Rotary Torque
TPO  .m3/min                                      :     26  Total Pump Output
SPP  .kPa                                         :      8  Standpipe Pressure
DIFP .kPa                                         :    123  Differential Pressure
GAM  .api                                         :     49  Gamma
DATE .yymmdd                                      :      0  YearMonthDay
TIME .hhmmss                                      :      0  HoursMinutesSeconds
# NOTE: Data generated with Omit Duplicate Depths enabled
~A DEPT       ROP      OBR      WOB      RPM       HL      BHT      TOR      TPO      SPP     DIFP      GAM   YYMMDD HHMMSS
# ...
4156.00     34.01    34.01     14.8       51     52.2     22.0 12501.100     1.19    25760   3473.5   103.03   230221 190053
4156.20     35.14    35.14     14.8       51     52.2     21.8 12564.900     1.19    25800   3513.5  -999.25   230221 190113
4156.40     35.49    35.49     14.9       51     52.3     21.6 12546.200     1.19    25800   3513.1  -999.25   230221 190135
4156.60     34.58    34.58     14.9       51     52.2     21.4 12632.600     1.19    25778   3491.6  -999.25   230221 190157
4156.80     33.20    33.20     14.8       51     52.2     21.2 12595.000     1.19    25681   3394.2  -999.25   230221 190219
4157.00     33.68    33.68     14.8       51     52.1     21.0 12640.100     1.19    25684   3397.7  -999.25   230221 190239
4157.20     34.55    34.55     14.8       51     52.1     20.8 12700.200     1.19    25764   3477.7  -999.25   230221 190300
4157.40     35.02    35.02     15.0       51     52.2     20.6 12621.300     1.19    25646   3359.6  -999.25   230221 190321
4157.60     34.56    34.56     14.9       51     52.2     20.4 12906.700     1.19    25632   3344.9  -999.25   230221 190344
4157.80     32.39    32.39     14.9       51     52.2     20.2 12835.400     1.19    25676   3389.5  -999.25   230221 190405
4158.00     32.86    32.86     14.9       51     52.1     20.0 12794.100     1.19    25722   3435.5  -999.25   230221 190428
4158.20     34.13    34.13     14.9       51     52.1     19.8 12827.900     1.19    25732   3444.9  -999.25   230221 190448
4158.40     35.24    35.24     14.9       51     52.1     19.6 13087.000     1.19    25779   3492.1  -999.25   230221 190509
4158.60     35.39    35.39     14.9       51     52.1     19.4 13083.300     1.19    25796   3509.3   100.70   230221 190530
4158.80     35.44    35.44     15.0       51     52.1     19.2 12966.800     1.19    25804   3517.0   100.70   230221 190551
4159.00     35.66    35.66     14.9       51     52.1     19.0 13199.700     1.19    25805   3518.5   100.70   230221 190612
4159.20     34.73    34.73     14.9       51     52.1     18.8 13102.100     1.19    25768   3481.4   100.70   230221 190632
4159.40     36.00    36.00     14.9       51     52.1     18.6 13075.800     1.19    25715   3428.0    98.37   230221 190652
4159.60     35.81    35.81     15.0       51     52.0     18.4 13011.900     1.19    25747   3460.2   100.70   230221 190714
4159.80     35.17    35.17     15.0       51     52.0     18.2 13072.000     1.19    25735   3448.2   100.70   230221 190735
4160.00     35.66    35.66     14.9       51     52.0     18.0 12989.400     1.19    25773   3486.3   100.70   230221 190755
4160.20     35.86    35.86     15.0       51     52.1     17.8 13053.200     1.19    25736   3449.7    98.37   230221 190816
4160.40     35.49    35.49     15.0       51     52.2     17.6 13259.800     1.19    25704   3417.5    98.37   230221 190837
4160.60     35.15    35.15     15.1       51     52.0     17.4 13406.300     1.19    25622   3335.2    92.26   230221 190857
4160.80     34.80    34.80     15.1       51     52.2     17.2 13180.900     1.19    25647   3360.2    94.30   230221 190919
4161.00     34.06    34.06     15.1       51     52.3     17.0 13661.700     1.19    25581   3294.2    94.30   230221 190940
4161.20     34.68    34.68     15.1       51     52.2     16.8 13522.700     1.19    25552   3265.8    92.26   230221 191001
4161.40     35.22    35.22     15.1       51     52.3     16.6 13519.000     1.19    25661   3374.0    94.30   230221 191021
4161.60     35.27    35.27     15.1       51     52.3     16.4 13827.000     1.19    25696   3409.8    94.30   230221 191042
4161.80     35.02    35.02     15.1       51     52.2     16.2 13710.500     1.19    25692   3405.6    94.30   230221 191102
4162.00     35.22    35.22     15.1       51     52.2     16.0 13624.100     1.19    25663   3376.1    94.30   230221 191124
4162.20     34.65    34.65     15.1       51     52.1     15.8 13729.300     1.19    25621   3334.7    94.30   230221 191146
4162.40     35.07    35.07     15.3       51     52.3     15.6 14146.200     1.19    25639   3352.6    94.30   230221 191207
4162.60     34.87    34.87     15.1       51     52.2     15.4 13804.400     1.19    25589   3302.1    98.37   230221 191228
4162.80     34.38    34.38     15.1       51     52.1     15.2 13748.100     1.19    25614   3326.8   100.70   230221 191249
4163.00     33.93    33.93     15.2       51     52.1     15.0 13466.400     1.19    25556   3269.9    98.37   230221 191311
4163.20     34.78    34.78     15.1       51     52.1     14.8 13519.000     1.19    25495   3208.7    98.37   230221 191331
4163.40     34.83    34.83     15.1       51     52.1     14.6 13417.600     1.19    25441   3154.2    96.34   230221 191353
4163.60     33.35    33.35     15.2       51     52.1     14.4 13383.800     1.19    25471   3184.5    96.34   230221 191414
4163.80     33.74    33.74     15.3       51     52.1     14.2 13710.500     1.19    25506   3219.5    94.30   230221 191437
4164.00     32.51    32.51     15.2       51     52.0     14.0 13579.100     1.19    25411   3124.4    94.30   230221 191500
4164.20     33.06    33.06     15.2       51     52.1     13.8 13387.500     1.19    25372   3085.2    94.30   230221 191522
4164.40     34.11    34.11     15.2       51     52.0     13.6 13496.400     1.19    25355   3068.1    94.30   230221 191542
4164.60     34.75    34.75     15.3       51     52.1     13.4 13586.600     1.19    25392   3104.9    94.30   230221 191605
4164.80     34.32    34.32     15.3       51     52.0     13.2 13496.400     1.19    25396   3109.7    94.30   230221 191625
4165.00     34.96    34.96     15.4       51     52.2     13.0 13436.300     1.19    25469   3181.9    92.26   230221 191647
4165.20     33.99    33.99     15.4       51     52.1     12.8 13657.900     1.19    25415   3128.5    92.26   230221 191708
4165.40     34.55    34.55     15.2       51     52.0     12.6 13586.600     1.19    25443   3156.7    92.26   230221 191729
4165.60     35.54    35.54     15.3       51     52.0     12.4 13526.500     1.19    25426   3139.5    92.26   230221 191750
4165.80     34.43    34.43     15.3       51     52.0     12.2 13417.600     1.19    25519   3232.7    92.26   230221 191811
4166.00     34.14    34.14     15.2       51     52.2     12.0 13988.500     1.19    25519   3232.6    92.26   230221 191833
4166.20     35.05    35.05     15.3       51     52.1     11.8 13665.400     1.19    25512   3225.3    92.26   230221 191853
4166.40     35.32    35.32     15.4       51     51.9     11.6 13733.100     1.19    25489   3202.4    89.93   230221 191914
4166.60     34.56    34.56     15.4       51     52.0     11.4 13507.700     1.19    25470   3183.3    89.93   230221 191936
4166.80     34.87    34.87     15.4       51     52.0     11.2 13470.100     1.19    25377   3089.9    88.19   230221 191956
4167.00     34.71    34.71     15.4       51     52.0     11.0 13774.400     1.19    25382   3095.7    88.19   230221 192018
4167.20     33.52    33.52     15.4       51     52.0     10.8 13601.600     1.19    25428   3141.2    92.26   230221 192040
4167.40     34.63    34.63     15.3       51     52.0     10.6 14056.100     1.19    25401   3114.1    92.26   230221 192101
4167.60     34.95    34.95     15.4       51     52.0     10.4 13838.200     1.19    25340   3052.9    92.26   230221 192123
4167.80     33.25    33.25     15.3       51     51.9     10.2 13676.700     1.19    25361   3074.6    92.26   230221 192145
4168.00     33.37    33.37     15.4       51     52.0     10.0 13646.700     1.19    25408   3121.7    92.26   230221 192206
4168.20     33.65    33.65     15.4       51     52.1      9.8 13665.400     1.19    25377   3089.9    89.93   230221 192228
4168.40     33.55    33.55     15.4       51     52.0      9.6 13868.300     1.19    25339   3052.8    89.93   230221 192250
4168.60     33.64    33.64     15.4       51     52.0      9.4 13417.600     1.19    25305   3018.3    89.93   230221 192312
