#Pason DataHub                     Well Dossier No:    28542213
#LAS - Log ASCII Standard         Report Generated:    2023-08-31 16:35:45MDT
~VERSION INFORMATION
VERS.                                          2.0:    CWLS LOG ASCII STANDARD - VERSION 2.0
WRAP.                                           No:    ONE LINE PER DEPTH STEP
~WELL INFORMATION BLOCK
#MNEM.UNIT                                     DATA    DESCRIPTION OF MNEMONIC
#---------                                     ----    -----------------------
STRT.meters                                   0.20:    Start Depth
STOP.meters                                5659.80:    Stop Depth
STEP.meters                                   0.20:    Step Value
NULL.                                      -999.25:    NULL Value
COMP.                           Ovintiv Canada ULC:    Company
WELL.                 OVV HZ 108 WEMBLEY 1-29-71-8:    Well
FLD .                                      WEMBLEY:    Field
LOC .                               05-31-071-08W6:    Location
PROV.                                           AB:    Province
CTRY.                                       Canada:    Country
SRVC.             Precision Drilling, div of PDCLP:    Service Company
DATE.                                             :    Date
UWI .                        108/01-29-071-08W6/00:    Unique Well ID
RIG .                                Precision 535:    Rig
NUM .                                     28542213:    Well Dossier No
~CURVE INFORMATION
#MNEM.UNIT                                 API CODE    CURVE DESCRIPTION
#---------                                 --------    -----------------
DEPT .meters                                   001:      5  Hole Depth
ROP  .m/hr                                        :      3  Rate Of Penetration
OBR  .m/hr                                        :     14  On Bottom ROP
WOB  .kDaN                                        :     13  Weight on Bit
RPM  .RPM                                         :     11  Rotary RPM
HL   .kDaN                                        :      7  Hook Load
BHT  .meters                                      :     28  Block Height
TOR  .                                            :     12  Rotary Torque
TPO  .m3/min                                      :     26  Total Pump Output
SPP  .kPa                                         :      8  Standpipe Pressure
DIFP .kPa                                         :    123  Differential Pressure
GAM  .api                                         :     49  Gamma
DATE .yymmdd                                      :      0  YearMonthDay
TIME .hhmmss                                      :      0  HoursMinutesSeconds
# NOTE: Data generated with Omit Duplicate Depths enabled
~A DEPT       ROP      OBR      WOB      RPM       HL      BHT      TOR      TPO      SPP     DIFP      GAM   YYMMDD HHMMSS
# ...
779.80      83.23    83.23      3.6       51     39.3    171.9 3963.760     1.30    13601   3172.2  -999.25   230215 185315
780.00      83.48    83.48      3.4       51     39.4    171.7 3937.470     1.30    13660   3231.1   110.91   230215 185323
780.20      83.60    83.60      3.3       51     39.5    171.5 3903.660     1.30    13613   3183.9  -999.25   230215 185332
780.40      83.54    83.54      5.7       51     38.7    171.3 4504.620     1.30    14162   3732.8  -999.25   230215 185340
780.60      84.76    84.76      4.2       50     39.1    171.1 4226.680     1.30    14247   3817.6  -999.25   230215 185347
780.80      91.59    91.59      7.1       50     37.6    170.9 4711.200     1.30    14390   3960.9  -999.25   230215 185353
781.00     104.11   104.11      8.8       50     34.7    170.7 4876.460     1.30    14869   4440.0  -999.25   230215 185358
781.20     119.70   119.70     10.3       50     33.1    170.5 5056.750     1.30    15575   5145.7  -999.25   230215 185402
781.40     133.57   133.57     10.8       50     32.0    170.3 5075.530     1.30    15951   5522.0  -999.25   230215 185407
781.60     145.57   145.57     11.6       50     31.9    170.1 5744.090     1.30    16000   5571.3   118.60   230215 185411
781.80     153.00   153.00     11.7       50     31.1    169.9 5627.650     1.29    16415   5985.5  -999.25   230215 185416
782.00     157.21   157.21     11.9       50     31.0    169.7 5612.630     1.30    16481   6051.9  -999.25   230215 185420
782.20     158.78   158.78     12.3       50     30.4    169.5 5451.120     1.30    16639   6209.8  -999.25   230215 185425
782.40     159.35   159.35     12.4       50     30.2    169.3 5766.630     1.30    16641   6211.5  -999.25   230215 185429
782.60     159.45   159.45     12.5       50     30.4    169.1 5774.140     1.30    16719   6289.9  -999.25   230215 185434
782.80     159.47   159.47     12.0       50     30.9    168.9 5706.530     1.30    16765   6335.6  -999.25   230215 185438
783.00     160.08   160.08     11.7       50     31.1    168.7 5552.540     1.30    16636   6207.4  -999.25   230215 185443
783.20     160.82   160.82     11.8       50     31.1    168.5 5492.440     1.29    16465   6036.3  -999.25   230215 185447
783.40     161.59   161.59     12.0       50     30.8    168.3 5530.000     1.29    16554   6124.8  -999.25   230215 185452
783.60     161.87   161.87     12.0       51     30.8    168.1 5571.310     1.29    16540   6110.8  -999.25   230215 185456
783.80     161.99   161.99     11.8       50     31.1    167.9 5421.080     1.29    16446   6016.6  -999.25   230215 185501
784.00     162.01   162.01     11.8       50     30.8    167.7 5586.340     1.30    16490   6061.0   126.61   230215 185505
784.20     162.06   162.06     11.9       50     30.8    167.5 5575.070     1.30    16594   6165.3  -999.25   230215 185510
784.40     162.10   162.10     12.1       50     30.7    167.3 5751.600     1.29    16646   6217.3  -999.25   230215 185514
784.60     162.06   162.06     11.9       51     30.8    167.1 5890.570     1.30    16791   6361.8  -999.25   230215 185518
784.80     162.12   162.12     12.1       50     30.8    166.9 5762.870     1.30    16734   6305.4  -999.25   230215 185523
785.00     162.10   162.10     12.0       50     30.7    166.7 5868.040     1.29    16561   6131.5   126.61   230215 185527
785.20     162.14   162.14     12.1       50     30.5    166.5 5879.310     1.30    16641   6212.2  -999.25   230215 185532
785.40     162.14   162.14     11.9       51     30.9    166.3 5755.360     1.30    16780   6350.7  -999.25   230215 185536
785.60     161.75   161.75     11.9       50     30.8    166.1 5631.410     1.30    16712   6283.3  -999.25   230215 185541
785.80     161.50   161.50     12.3       50     30.4    165.9 6003.250     1.30    16682   6252.7  -999.25   230215 185545
786.00     161.17   161.17     13.4       51     30.2    165.7 6078.370     1.30    16789   6359.5  -999.25   230215 185550
786.20     160.46   160.46     13.1       51     30.3    165.5 6232.370     1.30    16740   6311.3  -999.25   230215 185555
786.40     158.99   158.99     12.3       51     30.4    165.3 6176.030     1.30    16903   6473.6  -999.25   230215 185559
786.60     157.50   157.50     12.8       51     30.4    165.1 6115.930     1.29    17002   6572.6  -999.25   230215 185604
786.80     157.23   157.23     12.3       51     30.4    164.9 5969.450     1.30    16952   6523.2  -999.25   230215 185608
787.00     158.54   158.54     12.6       51     30.3    164.7 6168.520     1.29    16751   6322.2  -999.25   230215 185613
787.20     159.15   159.15     13.4       50     29.8    164.5 6660.550     1.30    17201   6771.8  -999.25   230215 185618
787.40     159.05   159.05     13.4       51     29.9    164.3 6626.750     1.30    17331   6901.9  -999.25   230215 185623
787.60     156.42   156.42     12.6       51     30.1    164.1 5714.040     1.30    17046   6617.4  -999.25   230215 185627
787.80     152.92   152.92     12.6       51     30.3    163.9 6055.840     1.29    17075   6645.5  -999.25   230215 185632
788.00     152.26   152.26     12.2       50     30.4    163.7 5699.020     1.30    17088   6658.4  -999.25   230215 185636
788.20     155.69   155.69     12.1       50     30.3    163.5 5781.650     1.30    16875   6446.1  -999.25   230215 185640
788.40     159.16   159.16     12.3       50     30.5    163.3 5984.470     1.29    16836   6406.4  -999.25   230215 185645
788.60     161.39   161.39     12.1       51     30.5    163.1 5759.110     1.30    16903   6473.6  -999.25   230215 185649
788.80     161.98   161.98     12.1       50     30.4    162.9 5969.450     1.29    17018   6589.3  -999.25   230215 185654
789.00     162.18   162.18     12.2       51     30.2    162.7 5939.400     1.30    17142   6712.9  -999.25   230215 185658
789.20     162.17   162.17     12.3       50     30.5    162.5 5541.270     1.29    17104   6674.6  -999.25   230215 185703
789.40     162.22   162.22     12.2       50     30.2    162.3 5687.750     1.29    17079   6650.1  -999.25   230215 185707
789.60     162.20   162.20     12.5       50     30.1    162.1 5909.350     1.30    17077   6648.0  -999.25   230215 185712
789.80     162.20   162.20     12.6       50     29.8    161.9 5883.060     1.30    17338   6909.2  -999.25   230215 185716
790.00     162.05   162.05     12.7       51     29.9    161.7 5958.180     1.30    17305   6876.3  -999.25   230215 185721
790.20      23.87    23.87      3.9       13     39.7    161.5 7678.420     1.30    12942   1582.2  -999.25   230215 185958
790.40      49.93    49.93      4.1        0     38.9    161.3 1879.190     1.30    12927   1566.9  -999.25   230215 190012
790.60      51.62    51.62      5.9        0     38.6    161.1 1909.240     1.30    13026   1666.5   121.17   230215 190027
790.80      51.50    51.50      5.2        0     39.0    160.9 1804.070     1.30    13344   1983.8   121.17   230215 190041
791.00      51.13    51.13      4.0        0     38.9    160.7 1728.950     1.30    13005   1645.2   121.17   230215 190055
791.20      52.44    52.44      3.9        1     39.0    160.5 5657.700     1.30    12958   1597.8   121.17   230215 190109
791.40      53.14    53.14      3.9        1     38.9    160.3 3689.570     1.30    12968   1608.3   121.17   230215 190123
791.60      52.94    52.94      4.4        2     39.4    160.1 8685.020     1.30    12972   1612.2   121.17   230215 190137
791.80      50.52    50.52      4.1        0     39.0    159.9 5330.930     1.30    12908   1548.5   121.17   230215 190151
792.00      51.35    51.35      3.8        0     39.8    159.7 7550.720     1.30    12752   1392.5   121.17   230215 190207
792.20      48.57    48.57      3.7        2     39.3    159.5 8125.380     1.30    12684   1323.9   126.61   230215 190221
792.40      53.27    53.27      4.0        0     39.0    159.3 4887.730     1.30    12852   1492.0  -999.25   230215 190234
792.60      54.65    54.65      3.7        0     39.6    159.1 7111.270     1.30    12867   1507.2  -999.25   230215 190249
