#Pason DataHub                     Well Dossier No:    28622902
#LAS - Log ASCII Standard         Report Generated:    2023-08-31 16:32:34MDT
~VERSION INFORMATION
VERS.                                          2.0:    CWLS LOG ASCII STANDARD - VERSION 2.0
WRAP.                                           No:    ONE LINE PER DEPTH STEP
~WELL INFORMATION BLOCK
#MNEM.UNIT                                     DATA    DESCRIPTION OF MNEMONIC
#---------                                     ----    -----------------------
STRT.meters                                   0.20:    Start Depth
STOP.meters                                5700.00:    Stop Depth
STEP.meters                                   0.20:    Step Value
NULL.                                      -999.25:    NULL Value
COMP.                           Ovintiv Canada ULC:    Company
WELL.                 OVV HZ 105 WEMBLEY 15-4-73-9:    Well
FLD .                                      WEMBLEY:    Field
LOC .                               15-28-072-09W6:    Location
PROV.                                           AB:    Province
CTRY.                                       Canada:    Country
SRVC.             Precision Drilling, div of PDCLP:    Service Company
DATE.                                             :    Date
UWI .                        105/15-04-073-09W6/00:    Unique Well ID
RIG .                                Precision 535:    Rig
NUM .                                     28622902:    Well Dossier No
~CURVE INFORMATION
#MNEM.UNIT                                 API CODE    CURVE DESCRIPTION
#---------                                 --------    -----------------
DEPT .meters                                   001:      5  Hole Depth
ROP  .m/hr                                        :      3  Rate Of Penetration
OBR  .m/hr                                        :     14  On Bottom ROP
WOB  .kDaN                                        :     13  Weight on Bit
RPM  .RPM                                         :     11  Rotary RPM
HL   .kDaN                                        :      7  Hook Load
BHT  .meters                                      :     28  Block Height
TOR  .                                            :     12  Rotary Torque
TPO  .m3/min                                      :     26  Total Pump Output
SPP  .kPa                                         :      8  Standpipe Pressure
DIFP .kPa                                         :    123  Differential Pressure
GAM  .api                                         :     49  Gamma
DATE .yymmdd                                      :      0  YearMonthDay
TIME .hhmmss                                      :      0  HoursMinutesSeconds
# NOTE: Data generated with Omit Duplicate Depths enabled
~A DEPT       ROP      OBR      WOB      RPM       HL      BHT      TOR      TPO      SPP     DIFP      GAM   YYMMDD HHMMSS
# ...
4554.60     85.10    85.10     13.6       56     59.4      4.4 13778.100     1.20    29556   6149.7  -999.25   230411 062917
4554.80     85.07    85.07     13.6       55     59.3      4.2 13759.300     1.20    29567   6160.5  -999.25   230411 062925
4555.00     85.03    85.03     13.6       55     59.4      4.0 13736.800     1.20    29457   6051.1   124.91   230411 062934
4555.20     85.29    85.29     13.8       55     59.2      3.8 13590.300     1.20    29531   6124.9   124.91   230411 062942
4555.40     85.46    85.46     13.6       55     59.3      3.6 13530.200     1.20    29558   6151.3   124.91   230411 062950
4555.60     85.81    85.81     13.7       56     59.1      3.4 13646.700     1.20    29484   6077.3   124.91   230411 062959
4555.80     85.78    85.78     13.9       55     59.1      3.2 13477.700     1.20    29539   6132.3   124.91   230411 063009
4556.00     12.03    12.03      5.8       55     67.8     29.9 9263.440     1.20    23932    526.1   124.91   230411 063545
4556.20     40.31    40.31      7.3       55     66.5     29.7 10112.300     1.20    25190   1783.4  -999.25   230411 063556
4556.40   -999.25  -999.25  -999.25  -999.25  -999.25  -999.25  -999.25  -999.25  -999.25  -999.25  -999.25   230411 063556
4556.60   -999.25  -999.25  -999.25  -999.25  -999.25  -999.25  -999.25  -999.25  -999.25  -999.25  -999.25   230411 063556
4556.80   -999.25  -999.25  -999.25  -999.25  -999.25  -999.25  -999.25  -999.25  -999.25  -999.25  -999.25   230411 063556
4557.00   -999.25  -999.25  -999.25  -999.25  -999.25  -999.25  -999.25  -999.25  -999.25  -999.25  -999.25   230411 063556
4557.20   -999.25  -999.25  -999.25  -999.25  -999.25  -999.25  -999.25  -999.25  -999.25  -999.25  -999.25   230411 063556
4557.40   -999.25  -999.25  -999.25  -999.25  -999.25  -999.25  -999.25  -999.25  -999.25  -999.25  -999.25   230411 063556
4557.60   -999.25  -999.25  -999.25  -999.25  -999.25  -999.25  -999.25  -999.25  -999.25  -999.25  -999.25   230411 063556
4557.80     56.38    56.38      7.6       55     65.4     29.5 10247.500     1.20    25692   2285.4   124.91   230411 063601
4558.00     68.64    68.64      8.6       55     64.7     29.4 10818.400     1.20    26482   3075.3   122.19   230411 063611
4558.20     68.77    68.77      9.2       55     63.9     29.2 11498.200     1.20    26970   3563.6   122.19   230411 063622
4558.40     68.74    68.74      9.7       55     63.4     29.0 11626.000     1.20    27320   3913.2   122.19   230411 063632
4558.60     68.86    68.86      9.9       55     63.1     28.8 11742.400     1.20    27660   4253.7   122.19   230411 063643
4558.80     68.87    68.87     10.1       55     63.0     28.6 11787.500     1.20    27814   4408.1   122.19   230411 063653
4559.00     68.77    68.77     10.1       55     63.0     28.4 11881.400     1.20    27922   4515.9   119.47   230411 063703
4559.20     68.74    68.74     10.4       55     62.9     28.2 11896.400     1.20    27900   4494.0  -999.25   230411 063714
4559.40     68.81    68.81     10.5       55     62.5     28.0 11945.200     1.20    28117   4711.2  -999.25   230411 063724
4559.60     68.71    68.71     10.5       55     62.5     27.8 12039.100     1.20    28130   4723.3  -999.25   230411 063735
4559.80     68.86    68.86     10.5       55     62.5     27.6 12020.300     1.20    28134   4727.2  -999.25   230411 063745
4560.00     68.94    68.94     10.6       55     62.4     27.4 12024.100     1.20    28101   4695.1  -999.25   230411 063756
4560.20     68.79    68.79     10.7       55     62.4     27.2 12057.900     1.20    28218   4811.8  -999.25   230411 063806
4560.40     68.78    68.78     10.6       55     62.4     27.0 12151.800     1.20    28233   4827.0   119.47   230411 063817
4560.60     68.82    68.82     10.6       55     62.2     26.8 12170.600     1.20    28314   4907.6   119.47   230411 063827
4560.80     68.81    68.81     10.7       55     62.3     26.6 12114.200     1.20    28282   4875.2   119.47   230411 063838
4561.00     68.78    68.78     10.7       55     62.2     26.4 12226.900     1.20    28253   4846.8   119.47   230411 063848
4561.20     68.96    68.96     10.9       55     62.2     26.2 12241.900     1.20    28300   4894.0   116.75   230411 063859
4561.40     68.89    68.89     10.9       55     61.9     26.0 12362.100     1.20    28207   4800.8  -999.25   230411 063909
4561.60     68.74    68.74     11.0       55     61.9     25.8 12399.700     1.20    28242   4836.1  -999.25   230411 063920
4561.80     68.84    68.84     11.1       55     61.8     25.6 12538.700     1.20    28279   4873.1  -999.25   230411 063930
4562.00     68.84    68.84     11.1       55     61.7     25.4 12595.000     1.20    28293   4886.6  -999.25   230411 063941
4562.20     68.77    68.77     11.3       55     61.7     25.2 12572.500     1.20    28278   4871.5  -999.25   230411 063951
4562.40     68.82    68.82     11.4       55     61.8     25.0 12651.300     1.20    28278   4871.3  -999.25   230411 064002
4562.60     69.15    69.15     11.6       55     61.5     24.8 12685.100     1.20    28271   4865.1   116.75   230411 064011
4562.80     74.25    74.25     12.3       55     60.9     24.6 12865.400     1.20    28411   5005.2   116.75   230411 064019
4563.00     83.94    83.94     12.9       55     60.3     24.4 13319.900     1.20    28501   5094.8   116.75   230411 064028
4563.20     86.33    86.33     12.9       55     59.9     24.2 13665.400     1.20    28628   5221.9   116.75   230411 064037
4563.40     85.12    85.12     13.1       55     59.9     24.0 13714.300     1.20    28766   5360.1  -999.25   230411 064047
4563.60     78.76    78.76     13.0       55     59.9     23.8 13684.200     1.20    28860   5453.3  -999.25   230411 064057
4563.80     74.87    74.87     13.0       55     60.1     23.6 13590.300     1.20    28990   5583.8  -999.25   230411 064106
4564.00     74.52    74.52     12.9       55     60.0     23.4 13586.600     1.20    28990   5583.9  -999.25   230411 064116
4564.20     75.95    75.95     13.0       55     59.9     23.2 13612.900     1.20    28960   5554.0  -999.25   230411 064125
4564.40     76.00    76.00     13.0       55     59.8     23.0 13676.700     1.20    28939   5532.6  -999.25   230411 064135
4564.60     74.47    74.47     12.9       55     59.9     22.8 13673.000     1.20    28831   5425.1   111.91   230411 064145
4564.80     73.15    73.15     13.0       55     60.0     22.6 13586.600     1.20    28913   5507.2  -999.25   230411 064155
4565.00     73.78    73.78     13.0       55     59.8     22.4 13646.700     1.20    28847   5440.6  -999.25   230411 064205
4565.20     73.86    73.86     13.1       55     60.0     22.2 13733.100     1.20    28866   5459.9  -999.25   230411 064215
4565.40     72.97    72.97     13.0       55     59.9     22.0 13661.700     1.20    28822   5415.4  -999.25   230411 064225
4565.60     71.98    71.98     13.0       55     59.9     21.8 13500.200     1.20    28837   5431.1  -999.25   230411 064235
4565.80     71.37    71.37     12.9       55     59.9     21.6 13612.900     1.20    28873   5466.6   111.91   230411 064245
4566.00     71.57    71.57     13.1       55     59.9     21.4 13507.700     1.20    28758   5351.6  -999.25   230411 064255
4566.20     72.01    72.01     13.1       55     60.0     21.2 13511.500     1.20    28747   5341.1  -999.25   230411 064305
4566.40     71.15    71.15     13.1       55     59.9     21.0 13477.700     1.20    28759   5352.6  -999.25   230411 064316
4566.60     69.61    69.61     13.2       55     59.9     20.8 13458.900     1.20    28770   5364.0  -999.25   230411 064326
4566.80     69.97    69.97     13.1       55     59.8     20.6 13443.800     1.20    28711   5304.7  -999.25   230411 064337
4567.00     69.57    69.57     13.0       55     59.9     20.4 13485.200     1.20    28741   5335.0   111.91   230411 064347
4567.20     69.67    69.67     13.2       55     59.8     20.2 13639.200     1.20    28700   5294.1  -999.25   230411 064357
4567.40     69.65    69.65     13.1       55     59.9     20.0 13616.600     1.20    28657   5251.1  -999.25   230411 064408
