#Pason DataHub                     Well Dossier No:    28622902
#LAS - Log ASCII Standard         Report Generated:    2023-08-31 16:32:34MDT
~VERSION INFORMATION
VERS.                                          2.0:    CWLS LOG ASCII STANDARD - VERSION 2.0
WRAP.                                           No:    ONE LINE PER DEPTH STEP
~WELL INFORMATION BLOCK
#MNEM.UNIT                                     DATA    DESCRIPTION OF MNEMONIC
#---------                                     ----    -----------------------
STRT.meters                                   0.20:    Start Depth
STOP.meters                                5700.00:    Stop Depth
STEP.meters                                   0.20:    Step Value
NULL.                                      -999.25:    NULL Value
COMP.                           Ovintiv Canada ULC:    Company
WELL.                 OVV HZ 105 WEMBLEY 15-4-73-9:    Well
FLD .                                      WEMBLEY:    Field
LOC .                               15-28-072-09W6:    Location
PROV.                                           AB:    Province
CTRY.                                       Canada:    Country
SRVC.             Precision Drilling, div of PDCLP:    Service Company
DATE.                                             :    Date
UWI .                        105/15-04-073-09W6/00:    Unique Well ID
RIG .                                Precision 535:    Rig
NUM .                                     28622902:    Well Dossier No
~CURVE INFORMATION
#MNEM.UNIT                                 API CODE    CURVE DESCRIPTION
#---------                                 --------    -----------------
DEPT .meters                                   001:      5  Hole Depth
ROP  .m/hr                                        :      3  Rate Of Penetration
OBR  .m/hr                                        :     14  On Bottom ROP
WOB  .kDaN                                        :     13  Weight on Bit
RPM  .RPM                                         :     11  Rotary RPM
HL   .kDaN                                        :      7  Hook Load
BHT  .meters                                      :     28  Block Height
TOR  .                                            :     12  Rotary Torque
TPO  .m3/min                                      :     26  Total Pump Output
SPP  .kPa                                         :      8  Standpipe Pressure
DIFP .kPa                                         :    123  Differential Pressure
GAM  .api                                         :     49  Gamma
DATE .yymmdd                                      :      0  YearMonthDay
TIME .hhmmss                                      :      0  HoursMinutesSeconds
# NOTE: Data generated with Omit Duplicate Depths enabled
~A DEPT       ROP      OBR      WOB      RPM       HL      BHT      TOR      TPO      SPP     DIFP      GAM   YYMMDD HHMMSS
# ...
3806.20     82.45    82.45     12.0       55     60.9     17.9 11994.000     1.20    28093   6490.7  -999.25   230410 115223
3806.40     82.37    82.37     11.9       55     60.9     17.7 11873.800     1.20    28197   6594.8  -999.25   230410 115231
3806.60     83.18    83.18     12.0       55     60.9     17.5 11956.500     1.20    28162   6560.1  -999.25   230410 115240
3806.80     83.65    83.65     11.9       55     60.9     17.3 11817.500     1.20    28201   6598.6  -999.25   230410 115248
3807.00     85.28    85.28     12.0       55     60.9     17.1 11933.900     1.20    28259   6657.1  -999.25   230410 115257
3807.20     86.57    86.57     12.0       55     60.7     16.9 11971.500     1.20    28294   6691.5  -999.25   230410 115305
3807.40     86.26    86.26     12.0       56     60.8     16.7 11798.700     1.20    28280   6677.5  -999.25   230410 115314
3807.60     84.58    84.58     12.0       55     60.9     16.5 11896.400     1.20    28253   6651.0  -999.25   230410 115322
3807.80     85.17    85.17     12.0       55     60.7     16.3 11855.100     1.20    28211   6609.0  -999.25   230410 115331
3808.00     85.74    85.74     11.9       55     60.8     16.1 11979.000     1.20    28326   6724.0  -999.25   230410 115339
3808.20     85.99    85.99     12.1       55     60.8     15.9 11802.500     1.20    28279   6676.6  -999.25   230410 115347
3808.40     85.99    85.99     12.1       56     60.7     15.7 11821.300     1.20    28305   6703.1  -999.25   230410 115356
3808.60     85.66    85.66     12.0       55     60.9     15.5 11922.700     1.20    28270   6667.6  -999.25   230410 115404
3808.80     85.02    85.02     12.0       55     60.8     15.3 11930.200     1.20    28319   6716.9  -999.25   230410 115413
3809.00     86.15    86.15     12.1       55     60.7     15.1 11873.800     1.20    28275   6673.4  -999.25   230410 115421
3809.20     86.37    86.37     12.0       55     60.8     14.9 11787.500     1.20    28255   6652.6  -999.25   230410 115430
3809.40     85.96    85.96     12.0       55     60.8     14.7 11806.200     1.20    28247   6644.8  -999.25   230410 115438
3809.60     85.22    85.22     11.9       55     60.7     14.5 11862.600     1.20    28198   6596.4  -999.25   230410 115446
3809.80     84.88    84.88     12.1       55     60.7     14.3 11870.100     1.20    28134   6532.3  -999.25   230410 115455
3810.00     85.17    85.17     11.9       55     60.7     14.1 11877.600     1.20    28280   6678.2  -999.25   230410 115503
3810.20     85.66    85.66     12.2       55     60.7     13.9 11866.300     1.20    28329   6727.2  -999.25   230410 115512
3810.40     85.79    85.79     12.2       55     60.7     13.7 11900.100     1.20    28243   6641.0   119.47   230410 115520
3810.60     85.00    85.00     12.1       55     60.7     13.5 11686.000     1.20    28291   6688.6  -999.25   230410 115529
3810.80     85.38    85.38     12.1       55     60.7     13.3 11941.500     1.20    28263   6661.4  -999.25   230410 115537
3811.00     86.01    86.01     12.0       55     60.7     13.1 11892.600     1.20    28163   6561.3  -999.25   230410 115546
3811.20     85.87    85.87     12.1       55     60.7     12.9 11881.400     1.20    28178   6575.7  -999.25   230410 115554
3811.40     84.87    84.87     12.1       56     60.7     12.7 11866.300     1.20    28257   6655.2  -999.25   230410 115603
3811.60     84.33    84.33     12.2       55     60.6     12.5 11892.600     1.20    28245   6643.0   116.75   230410 115612
3811.80     83.64    83.64     12.1       55     60.7     12.3 11832.500     1.20    28170   6567.8   116.75   230410 115620
3812.00     84.06    84.06     12.4       55     60.7     12.1 11907.700     1.20    28134   6532.2   116.75   230410 115629
3812.20     85.20    85.20     12.2       55     60.6     11.9 11843.800     1.20    28055   6452.6   122.19   230410 115637
3812.40     85.22    85.22     12.2       55     60.6     11.7 11821.300     1.20    28103   6501.4   122.19   230410 115646
3812.60     84.37    84.37     12.1       55     60.6     11.5 11855.100     1.20    28122   6519.7   122.19   230410 115655
3812.80     82.93    82.93     12.1       55     60.6     11.3 11761.200     1.20    27987   6385.1   116.75   230410 115703
3813.00     82.81    82.81     12.1       55     60.7     11.1 11753.700     1.20    27937   6334.8   116.75   230410 115712
3813.20     82.95    82.95     12.1       55     60.5     10.9 11637.200     1.20    27929   6326.9   116.75   230410 115721
3813.40     83.18    83.18     12.2       55     60.5     10.7 11806.200     1.20    27941   6338.9   116.75   230410 115730
3813.60     82.91    82.91     12.3       55     60.7     10.5 11817.500     1.20    27991   6388.6   119.47   230410 115739
3813.80     80.37    80.37     12.3       55     60.5     10.3 11701.100     1.20    27908   6305.9   119.47   230410 115748
3814.00     79.31    79.31     12.2       55     60.5     10.1 11678.500     1.20    27782   6180.4   119.47   230410 115757
3814.20     79.36    79.36     12.3       55     60.5      9.9 11693.600     1.20    27874   6272.4   119.47   230410 115806
3814.40     78.72    78.72     12.2       55     60.5      9.7 11813.800     1.20    27797   6195.4   119.47   230410 115816
3814.60     77.71    77.71     12.4       55     60.6      9.5 11795.000     1.20    27656   6054.4   122.19   230410 115825
3814.80     76.30    76.30     12.3       55     60.6      9.3 11885.100     1.20    27734   6131.7   122.19   230410 115835
3815.00     75.12    75.12     12.2       55     60.7      9.1 11659.800     1.20    27760   6157.8   122.19   230410 115844
3815.20     76.51    76.51     12.3       55     60.6      8.9 11686.000     1.20    27645   6042.8  -999.25   230410 115854
3815.40     76.41    76.41     12.2       55     60.5      8.7 11652.200     1.20    27622   6019.5  -999.25   230410 115904
3815.60     75.31    75.31     12.2       55     60.5      8.5 11678.500     1.20    27695   6092.9  -999.25   230410 115913
3815.80     74.23    74.23     12.2       55     60.6      8.3 11558.300     1.20    27610   6008.3  -999.25   230410 115923
3816.00     74.64    74.64     12.3       55     60.5      8.1 11768.700     1.20    27590   5988.1  -999.25   230410 115933
3816.20     75.11    75.11     12.2       55     60.6      7.9 11697.300     1.20    27651   6049.4   122.19   230410 115942
3816.40     76.91    76.91     12.3       55     60.5      7.7 11704.800     1.20    27567   5964.5  -999.25   230410 115951
3816.60     77.06    77.06     12.4       55     60.4      7.5 11693.600     1.20    27708   6105.9  -999.25   230410 120001
3816.80     76.44    76.44     12.2       55     60.6      7.3 11746.100     1.20    27694   6091.5  -999.25   230410 120010
3817.00     76.47    76.47     12.2       55     60.4      7.1 11734.900     1.20    27728   6126.4  -999.25   230410 120019
3817.20     77.35    77.35     12.2       55     60.5      6.9 11693.600     1.20    27720   6117.8  -999.25   230410 120029
3817.40     78.04    78.04     12.4       55     60.4      6.7 11701.100     1.20    27706   6103.4   122.19   230410 120038
3817.60     78.41    78.41     12.3       55     60.4      6.5 11663.500     1.20    27838   6235.9  -999.25   230410 120047
3817.80     78.26    78.26     12.3       55     60.4      6.3 11851.300     1.20    27729   6127.1  -999.25   230410 120056
3818.00     77.35    77.35     12.2       55     60.4      6.1 11795.000     1.20    27768   6166.0  -999.25   230410 120106
3818.20     78.48    78.48     12.3       55     60.4      5.9 11825.000     1.20    27651   6048.8  -999.25   230410 120115
3818.40     80.02    80.02     12.4       55     60.4      5.7 11783.700     1.20    27742   6140.1  -999.25   230410 120124
3818.60     80.19    80.19     12.3       55     60.4      5.5 11787.500     1.20    27911   6309.3  -999.25   230410 120133
3818.80     79.88    79.88     12.3       55     60.4      5.3 11798.700     1.20    27974   6371.8  -999.25   230410 120142
