#Pason DataHub                     Well Dossier No:    28622902
#LAS - Log ASCII Standard         Report Generated:    2023-08-31 16:32:34MDT
~VERSION INFORMATION
VERS.                                          2.0:    CWLS LOG ASCII STANDARD - VERSION 2.0
WRAP.                                           No:    ONE LINE PER DEPTH STEP
~WELL INFORMATION BLOCK
#MNEM.UNIT                                     DATA    DESCRIPTION OF MNEMONIC
#---------                                     ----    -----------------------
STRT.meters                                   0.20:    Start Depth
STOP.meters                                5700.00:    Stop Depth
STEP.meters                                   0.20:    Step Value
NULL.                                      -999.25:    NULL Value
COMP.                           Ovintiv Canada ULC:    Company
WELL.                 OVV HZ 105 WEMBLEY 15-4-73-9:    Well
FLD .                                      WEMBLEY:    Field
LOC .                               15-28-072-09W6:    Location
PROV.                                           AB:    Province
CTRY.                                       Canada:    Country
SRVC.             Precision Drilling, div of PDCLP:    Service Company
DATE.                                             :    Date
UWI .                        105/15-04-073-09W6/00:    Unique Well ID
RIG .                                Precision 535:    Rig
NUM .                                     28622902:    Well Dossier No
~CURVE INFORMATION
#MNEM.UNIT                                 API CODE    CURVE DESCRIPTION
#---------                                 --------    -----------------
DEPT .meters                                   001:      5  Hole Depth
ROP  .m/hr                                        :      3  Rate Of Penetration
OBR  .m/hr                                        :     14  On Bottom ROP
WOB  .kDaN                                        :     13  Weight on Bit
RPM  .RPM                                         :     11  Rotary RPM
HL   .kDaN                                        :      7  Hook Load
BHT  .meters                                      :     28  Block Height
TOR  .                                            :     12  Rotary Torque
TPO  .m3/min                                      :     26  Total Pump Output
SPP  .kPa                                         :      8  Standpipe Pressure
DIFP .kPa                                         :    123  Differential Pressure
GAM  .api                                         :     49  Gamma
DATE .yymmdd                                      :      0  YearMonthDay
TIME .hhmmss                                      :      0  HoursMinutesSeconds
# NOTE: Data generated with Omit Duplicate Depths enabled
~A DEPT       ROP      OBR      WOB      RPM       HL      BHT      TOR      TPO      SPP     DIFP      GAM   YYMMDD HHMMSS
# ...
1533.40    116.90   116.90     12.4       50     46.1      5.4 6930.980     1.20    20296   6994.8    94.07   230406 011951
1533.60    116.95   116.95     12.4       50     46.6      5.2 6863.370     1.20    20404   7102.7  -999.25   230406 011959
1533.80    105.83   105.83     12.0       50     46.6      5.0 6814.540     1.20    20233   6931.7  -999.25   230406 012007
1534.00     91.49    91.49     12.2       50     46.6      4.8 6822.060     1.20    20308   7005.9  -999.25   230406 012016
1534.20     87.80    87.80     12.4       51     47.0      4.6 7250.240     1.20    20610   7308.5  -999.25   230406 012025
1534.40     84.27    84.27     11.5       50     47.1      4.4 6859.620     1.20    20629   7327.2  -999.25   230406 012032
1534.60     91.52    91.52     11.8       50     46.8      4.2 6927.220     1.20    20531   7229.6  -999.25   230406 012039
1534.80     99.66    99.66     11.7       51     48.9      4.0 6641.770     1.20    20509   7207.2  -999.25   230406 012045
1535.00    108.04   108.04      9.8       51     50.6      3.8 6277.440     1.20    20013   6711.6    81.90   230406 012050
1535.20    118.16   118.16      9.3       50     50.9      3.6 6258.660     1.20    18924   5622.9    81.90   230406 012055
1535.40    129.04   129.04     11.9       50     48.3      3.4 7069.950     1.20    19397   6095.2    81.90   230406 012101
1535.60    131.10   131.10     12.6       50     46.4      3.2 7201.410     1.20    20730   7428.5    81.90   230406 012109
1535.80    125.30   125.30     12.1       50     46.6      3.0 7201.410     1.20    20777   7475.1    81.90   230406 012118
1536.00    101.17   101.17     12.1       50     46.7      2.8 6829.570     1.20    20528   7226.2    71.52   230406 012126
1536.20     89.57    89.57     11.9       50     46.8      2.6 6961.030     1.20    20489   7187.6    71.52   230406 012133
1536.40     92.13    92.13     11.9       50     46.7      2.4 6716.890     1.20    20408   7106.2    71.52   230406 012141
1536.60     94.81    94.81     11.8       50     46.9      2.2 6596.700     1.20    20234   6932.3    64.99   230406 012148
1536.80     97.89    97.89     12.0       50     46.6      2.0 6547.870     1.20    20136   6834.8  -999.25   230406 012155
1537.00     99.24    99.24     11.8       50     46.8      1.8 6484.020     1.20    20136   6834.0  -999.25   230406 012202
1537.20    100.20   100.20     11.9       50     46.8      1.6 6664.300     1.20    20052   6750.5  -999.25   230406 012209
1537.40    100.70   100.70     12.5       50     46.4      1.4 6957.270     1.20    20427   7125.7  -999.25   230406 012217
1537.60    100.03   100.03     12.2       50     46.7      1.2 6900.930     1.20    20543   7241.1  -999.25   230406 012226
1537.80     94.10    94.10     11.8       50     46.7      1.0 6919.710     1.20    20434   7132.1    73.00   230406 012233
1538.00     92.32    92.32     11.8       50     46.8      0.8 7036.150     1.20    20462   7160.1    73.00   230406 012240
1538.20     95.54    95.54     12.1       51     46.9      0.6 6844.590     1.20    20455   7153.6    73.00   230406 012248
1538.40     96.42    96.42     12.2       50     46.8      0.4 6472.750     1.20    19866   6564.8    73.00   230406 012255
1538.60     24.25    24.25      1.4       51     59.0     27.2 3329.000     1.20    13025   -276.5    73.00   230406 012715
1538.80     54.81    54.81      6.4       50     56.8     27.0 4835.140     1.20    15461   2159.7  -999.25   230406 012725
1539.00     72.65    72.65      8.9       50     51.5     26.8 5822.970     1.20    18113   4811.7  -999.25   230406 012734
1539.20     77.94    77.94      9.2       50     49.5     26.6 5860.530     1.20    18809   5507.7  -999.25   230406 012743
1539.40     78.31    78.31      9.3       50     49.3     26.4 6078.370     1.20    19175   5873.2  -999.25   230406 012752
1539.60     78.41    78.41      9.7       50     49.0     26.2 6130.960     1.20    19279   5977.1  -999.25   230406 012801
1539.80     78.41    78.41     10.0       50     48.9     26.0 6059.590     1.20    19390   6088.8  -999.25   230406 012811
1540.00     78.21    78.21     10.6       50     48.1     25.8 6701.870     1.20    19700   6398.7    48.67   230406 012820
1540.20     77.97    77.97     10.5       50     48.2     25.6 6408.900     1.20    19842   6540.0    48.67   230406 012829
1540.40     78.11    78.11     10.6       50     48.1     25.4 6532.850     1.20    19852   6550.8    48.67   230406 012838
1540.60     78.42    78.42     10.5       50     48.4     25.2 6611.720     1.20    19987   6685.1  -999.25   230406 012847
1540.80     78.52    78.52     10.3       50     48.5     25.0 6611.720     1.20    19949   6647.5  -999.25   230406 012856
1541.00     78.52    78.52      9.8       50     49.1     24.8 6435.190     1.20    19846   6544.1  -999.25   230406 012906
1541.20     78.49    78.49      9.1       50     50.0     24.6 6082.130     1.20    19772   6469.9  -999.25   230406 012915
1541.40     78.47    78.47      8.6       50     50.1     24.4 6010.770     1.20    19178   5875.9  -999.25   230406 012924
1541.60     78.44    78.44      8.4       50     50.4     24.2 6040.810     1.20    19044   5742.0  -999.25   230406 012933
1541.80     78.50    78.50      8.3       50     50.4     24.0 5980.720     1.20    19000   5698.1    48.67   230406 012942
1542.00     78.56    78.56      8.4       50     50.5     23.8 6022.030     1.20    18986   5683.9    48.67   230406 012951
1542.20     78.56    78.56      8.2       50     50.6     23.6 6134.710     1.20    18947   5645.8    48.67   230406 013001
1542.40     78.51    78.51      8.1       50     50.5     23.4 5946.910     1.20    18997   5695.0    48.67   230406 013010
1542.60     78.48    78.48      8.0       50     50.6     23.2 5939.400     1.20    18968   5666.8    48.67   230406 013019
1542.80     78.43    78.43      8.0       50     50.7     23.0 5710.290     1.20    18935   5633.8    48.67   230406 013028
1543.00     22.21    22.21      6.0       25     55.8     22.8 6251.150     1.20    15173   1438.5    48.67   230406 013404
1543.20     24.10    24.10      6.1        0     53.3     22.6 1563.690     1.20    15362   1628.0    42.73   230406 013438
1543.40     23.91    23.91      5.9        0     53.0     22.4 1574.950     1.20    15387   1652.9    42.73   230406 013508
1543.60     24.46    24.46      5.9        1     53.1     22.2 2975.930     1.20    15421   1686.6    42.73   230406 013537
1543.80     24.38    24.38      5.9        3     53.5     22.0 3843.560     1.20    15490   1755.4    42.73   230406 013609
1544.00     24.36    24.36      5.7        0     53.2     21.8 1732.710     1.20    15219   1484.2    42.73   230406 013638
1544.20     24.39    24.39      6.2        0     52.9     21.6 1728.950     1.20    15392   1657.6  -999.25   230406 013709
1544.40     24.19    24.19      6.5        0     52.5     21.4 1728.950     1.20    15663   1928.5  -999.25   230406 013743
1544.60     24.20    24.20      6.5        0     52.5     21.2 1728.950     1.20    15727   1992.7  -999.25   230406 013814
1544.80     23.63    23.63      6.3        1     52.6     21.0 2596.580     1.20    15646   1911.0  -999.25   230406 013846
1545.00     24.52    24.52      6.0        3     52.9     20.8 4474.570     1.20    15493   1758.2    45.11   230406 013915
1545.20     24.53    24.53      6.5        4     52.5     20.6 3588.160     1.20    15453   1718.5  -999.25   230406 013946
1545.40     24.44    24.44      6.3        3     52.8     20.4 3197.540     1.20    15464   1729.1  -999.25   230406 014015
1545.60     24.42    24.42      6.0        0     52.7     20.2 1394.670     1.20    15525   1790.4  -999.25   230406 014045
1545.80     24.54    24.54      6.1        0     52.7     20.0 1402.180     1.20    15397   1662.6  -999.25   230406 014114
1546.00     24.41    24.41      6.3        0     52.8     19.8 1394.670     1.20    15391   1656.5  -999.25   230406 014144
1546.20     24.44    24.44      6.1        0     52.8     19.6 1398.420     1.20    15406   1671.9  -999.25   230406 014214
