#Pason DataHub                     Well Dossier No:    28622902
#LAS - Log ASCII Standard         Report Generated:    2023-08-31 16:32:34MDT
~VERSION INFORMATION
VERS.                                          2.0:    CWLS LOG ASCII STANDARD - VERSION 2.0
WRAP.                                           No:    ONE LINE PER DEPTH STEP
~WELL INFORMATION BLOCK
#MNEM.UNIT                                     DATA    DESCRIPTION OF MNEMONIC
#---------                                     ----    -----------------------
STRT.meters                                   0.20:    Start Depth
STOP.meters                                5700.00:    Stop Depth
STEP.meters                                   0.20:    Step Value
NULL.                                      -999.25:    NULL Value
COMP.                           Ovintiv Canada ULC:    Company
WELL.                 OVV HZ 105 WEMBLEY 15-4-73-9:    Well
FLD .                                      WEMBLEY:    Field
LOC .                               15-28-072-09W6:    Location
PROV.                                           AB:    Province
CTRY.                                       Canada:    Country
SRVC.             Precision Drilling, div of PDCLP:    Service Company
DATE.                                             :    Date
UWI .                        105/15-04-073-09W6/00:    Unique Well ID
RIG .                                Precision 535:    Rig
NUM .                                     28622902:    Well Dossier No
~CURVE INFORMATION
#MNEM.UNIT                                 API CODE    CURVE DESCRIPTION
#---------                                 --------    -----------------
DEPT .meters                                   001:      5  Hole Depth
ROP  .m/hr                                        :      3  Rate Of Penetration
OBR  .m/hr                                        :     14  On Bottom ROP
WOB  .kDaN                                        :     13  Weight on Bit
RPM  .RPM                                         :     11  Rotary RPM
HL   .kDaN                                        :      7  Hook Load
BHT  .meters                                      :     28  Block Height
TOR  .                                            :     12  Rotary Torque
TPO  .m3/min                                      :     26  Total Pump Output
SPP  .kPa                                         :      8  Standpipe Pressure
DIFP .kPa                                         :    123  Differential Pressure
GAM  .api                                         :     49  Gamma
DATE .yymmdd                                      :      0  YearMonthDay
TIME .hhmmss                                      :      0  HoursMinutesSeconds
# NOTE: Data generated with Omit Duplicate Depths enabled
~A DEPT       ROP      OBR      WOB      RPM       HL      BHT      TOR      TPO      SPP     DIFP      GAM   YYMMDD HHMMSS
# ...
390.20     130.28   130.28     13.0       51     25.0     15.8 12061.600     3.21    20039   5697.1  -999.25   230404 035908
390.40     115.45   115.45     12.8       51     25.0     15.6 11776.200     3.20    20014   5671.9  -999.25   230404 035915
390.60     104.48   104.48     12.8       51     25.0     15.5 11520.800     3.20    19994   5651.9  -999.25   230404 035922
390.80     103.39   103.39     12.9       51     25.4     15.2 11261.600     3.21    19630   5288.0  -999.25   230404 035928
391.00     105.26   105.26     13.0       51     25.3     15.0 13222.200     3.21    19998   5655.4  -999.25   230404 035935
391.20     105.68   105.68     14.1       51     25.1     14.8 12065.400     3.21    20034   5691.4  -999.25   230404 035945
391.40      99.29    99.29     13.1       51     25.3     14.7 12936.800     3.21    20444   6101.5  -999.25   230404 035955
391.60      77.33    77.33     13.7       51     24.8     14.4 13981.000     3.21    20486   6143.5  -999.25   230404 040009
391.80      67.31    67.31     13.3       51     25.2     14.3 10217.500     3.21    18616   4273.2  -999.25   230404 040032
392.00      34.21    34.21     12.9       51     25.3     14.1 8962.960     3.21    18486   4143.7  -999.25   230404 040057
392.20      29.46    29.46     13.0       51     25.3     13.9 8996.770     3.21    18541   4198.6  -999.25   230404 040126
392.40      25.45    25.45     12.9       51     25.1     13.6 8136.650     3.21    17827   3484.7  -999.25   230404 040156
392.60      25.12    25.12     12.8       50     25.3     13.4 8730.090     3.21    18020   3677.6  -999.25   230404 040226
392.80      30.80    30.80     12.9       51     25.4     13.2 9845.620     3.21    18693   4350.4  -999.25   230404 040247
393.00      39.13    39.13     12.7       51     25.6     13.0 11378.100     3.21    19486   5143.9  -999.25   230404 040303
393.20      50.88    50.88     13.0       51     25.1     12.8 13365.000     3.21    20165   5822.9  -999.25   230404 040317
393.40      50.93    50.93     12.9       51     25.1     12.6 14518.100     3.21    20566   6223.6  -999.25   230404 040331
393.60      54.45    54.45     12.9       51     25.6     12.4 14221.300     3.21    20925   6582.7  -999.25   230404 040342
393.80      65.58    65.58     12.7       51     25.7     12.2 14754.700     3.21    21073   6730.3  -999.25   230404 040351
394.00      78.23    78.23     13.5       51     25.6     12.0 14608.200     3.21    20783   6440.6  -999.25   230404 040359
394.20      86.65    86.65     13.3       51     25.6     11.8 14769.700     3.21    20931   6588.2  -999.25   230404 040407
394.40      90.93    90.93     13.4       51     25.5     11.6 14510.500     3.21    21189   6846.8  -999.25   230404 040414
394.60      92.26    92.26     13.1       51     25.6     11.4 14638.200     3.21    21026   6683.6  -999.25   230404 040422
394.80      92.60    92.60     13.3       51     26.3     11.2 14886.100     3.21    21169   6826.9  -999.25   230404 040429
395.00      97.07    97.07     12.2       51     26.4     11.1 14172.500     3.20    21356   7013.4  -999.25   230404 040434
395.20     107.39   107.39     12.1       51     25.9     10.8 13984.700     3.20    20969   6626.9  -999.25   230404 040439
395.40     121.73   121.73     12.9       51     26.4     10.7 13766.900     3.21    20989   6646.3  -999.25   230404 040445
395.60     134.12   134.12     14.3       51     25.5     10.4 14416.600     3.20    20940   6597.5  -999.25   230404 040451
395.80     134.94   134.94     13.5       51     25.7     10.3 14104.900     3.21    20867   6524.4  -999.25   230404 040457
396.00     131.88   131.88     13.2       51     25.5     10.1 13609.100     3.21    20788   6445.7  -999.25   230404 040503
396.20     120.59   120.59     13.2       51     25.5      9.9 14206.300     3.21    20827   6484.7  -999.25   230404 040510
396.40     115.23   115.23     13.2       51     25.5      9.6 13909.600     3.21    20849   6506.8  -999.25   230404 040516
396.60     118.08   118.08     13.2       51     25.4      9.4 14161.200     3.20    20815   6472.8  -999.25   230404 040522
396.80     118.49   118.49     13.4       51     24.8      9.2 13334.900     3.21    20770   6427.6  -999.25   230404 040529
397.00     117.49   117.49     13.4       51     25.9      9.0 12527.400     3.21    20658   6315.2  -999.25   230404 040535
397.20     114.03   114.03     12.8       51     25.6      8.8 12869.200     3.20    20474   6132.2  -999.25   230404 040541
397.40     115.28   115.28     13.3       51     26.1      8.6 14232.600     3.20    20747   6404.5  -999.25   230404 040546
397.60     120.32   120.32     12.8       51     25.5      8.4 13124.600     3.21    20883   6540.3  -999.25   230404 040552
397.80     124.91   124.91     12.8       50     25.2      8.2 13282.300     3.20    20826   6483.2  -999.25   230404 040558
398.00     126.99   126.99     12.5       51     25.6      8.0 12666.400     3.20    20667   6324.9  -999.25   230404 040603
398.20     127.38   127.38     14.7       51     25.4      7.9 14766.000     3.21    21322   6979.5  -999.25   230404 040612
398.40     120.47   120.47     12.9       51     25.9      7.6 12249.400     3.21    21167   6824.3  -999.25   230404 040618
398.60     107.08   107.08     12.8       51     26.4      7.4 12275.700     3.21    20147   5805.1  -999.25   230404 040623
398.80     110.12   110.12     12.5       51     26.3      7.2 11554.600     3.20    20152   5810.1  -999.25   230404 040628
399.00     124.24   124.24     12.3       51     26.2      7.0 12148.000     3.21    20130   5787.2  -999.25   230404 040633
399.20     138.50   138.50     12.8       50     25.5      6.8 11483.200     3.20    20085   5742.9  -999.25   230404 040638
399.40     145.22   145.22     13.0       51     26.3      6.6 14431.700     3.20    20187   5844.3  -999.25   230404 040643
399.60     145.49   145.49     14.4       51     25.1      6.4 14236.400     3.20    21077   6734.8  -999.25   230404 040649
399.80     140.91   140.91     13.3       51     25.0      6.3 12087.900     3.21    20887   6544.5  -999.25   230404 040656
400.00     129.10   129.10     13.3       51     25.1      6.0 12538.700     3.20    20263   5920.5  -999.25   230404 040703
400.20     116.35   116.35     13.1       50     25.1      5.9 12621.300     3.20    20492   6149.9  -999.25   230404 040710
400.40     107.07   107.07     13.0       51     25.2      5.6 12426.000     3.21    20421   6078.6  -999.25   230404 040717
400.60     102.16   102.16     13.1       51     25.1      5.5 12133.000     3.21    20311   5968.4  -999.25   230404 040724
400.80     102.33   102.33     12.8       50     25.2      5.2 13019.400     3.21    20285   5943.0  -999.25   230404 040731
401.00     103.22   103.22     13.0       51     25.1      5.1 12666.400     3.21    20569   6226.5  -999.25   230404 040738
401.20     103.12   103.12     13.2       51     25.1      4.8 12538.700     3.20    20446   6103.6  -999.25   230404 040746
401.40     100.98   100.98     13.2       50     25.1      4.6 12377.100     3.21    20429   6086.7  -999.25   230404 040753
401.60      99.11    99.11     12.9       51     25.1      4.4 12786.600     3.20    20439   6096.5  -999.25   230404 040801
401.80      97.55    97.55     12.7       51     25.4      4.2 13143.400     3.21    20542   6199.6  -999.25   230404 040808
402.00      96.32    96.32     12.9       51     25.8      4.0 12903.000     3.21    20538   6195.6  -999.25   230404 040816
402.20      98.01    98.01     12.9       50     25.6      3.8 12313.300     3.21    20473   6130.7  -999.25   230404 040823
402.40     102.34   102.34     12.7       51     25.9      3.6 13162.100     3.21    20439   6096.2  -999.25   230404 040829
402.60     105.37   105.37     13.5       51     24.8      3.4 12411.000     3.21    20434   6091.4  -999.25   230404 040837
402.80     105.43   105.43     13.1       51     25.2      3.2 12399.700     3.21    20320   5977.3  -999.25   230404 040844
403.00     102.01   102.01     13.5       51     24.9      3.0 12812.800     3.21    20403   6061.1  -999.25   230404 040853
