#Pason DataHub                     Well Dossier No:    28622902
#LAS - Log ASCII Standard         Report Generated:    2023-08-31 16:32:34MDT
~VERSION INFORMATION
VERS.                                          2.0:    CWLS LOG ASCII STANDARD - VERSION 2.0
WRAP.                                           No:    ONE LINE PER DEPTH STEP
~WELL INFORMATION BLOCK
#MNEM.UNIT                                     DATA    DESCRIPTION OF MNEMONIC
#---------                                     ----    -----------------------
STRT.meters                                   0.20:    Start Depth
STOP.meters                                5700.00:    Stop Depth
STEP.meters                                   0.20:    Step Value
NULL.                                      -999.25:    NULL Value
COMP.                           Ovintiv Canada ULC:    Company
WELL.                 OVV HZ 105 WEMBLEY 15-4-73-9:    Well
FLD .                                      WEMBLEY:    Field
LOC .                               15-28-072-09W6:    Location
PROV.                                           AB:    Province
CTRY.                                       Canada:    Country
SRVC.             Precision Drilling, div of PDCLP:    Service Company
DATE.                                             :    Date
UWI .                        105/15-04-073-09W6/00:    Unique Well ID
RIG .                                Precision 535:    Rig
NUM .                                     28622902:    Well Dossier No
~CURVE INFORMATION
#MNEM.UNIT                                 API CODE    CURVE DESCRIPTION
#---------                                 --------    -----------------
DEPT .meters                                   001:      5  Hole Depth
ROP  .m/hr                                        :      3  Rate Of Penetration
OBR  .m/hr                                        :     14  On Bottom ROP
WOB  .kDaN                                        :     13  Weight on Bit
RPM  .RPM                                         :     11  Rotary RPM
HL   .kDaN                                        :      7  Hook Load
BHT  .meters                                      :     28  Block Height
TOR  .                                            :     12  Rotary Torque
TPO  .m3/min                                      :     26  Total Pump Output
SPP  .kPa                                         :      8  Standpipe Pressure
DIFP .kPa                                         :    123  Differential Pressure
GAM  .api                                         :     49  Gamma
DATE .yymmdd                                      :      0  YearMonthDay
TIME .hhmmss                                      :      0  HoursMinutesSeconds
# NOTE: Data generated with Omit Duplicate Depths enabled
~A DEPT       ROP      OBR      WOB      RPM       HL      BHT      TOR      TPO      SPP     DIFP      GAM   YYMMDD HHMMSS
# ...
4942.20     64.64    64.64     12.8       55     58.9     25.9 15164.100     1.19    30028   4897.7   122.19   230411 165127
4942.40     65.25    65.25     12.8       55     58.8     25.7 15130.300     1.19    30057   4926.4  -999.25   230411 165138
4942.60     65.44    65.44     12.7       55     58.9     25.5 15231.700     1.19    30052   4921.0  -999.25   230411 165149
4942.80     65.57    65.57     12.7       55     58.8     25.3 15141.500     1.19    29977   4846.6  -999.25   230411 165200
4943.00     65.84    65.84     12.7       55     58.7     25.1 15303.100     1.19    30094   4962.9  -999.25   230411 165211
4943.20     65.84    65.84     12.8       55     58.8     24.9 15096.500     1.19    30080   4949.7  -999.25   230411 165222
4943.40     65.55    65.55     12.7       55     58.8     24.7 15205.400     1.19    30009   4877.8   122.19   230411 165232
4943.60     67.73    67.73     12.9       55     58.8     24.5 15303.100     1.19    29999   4868.6   122.19   230411 165243
4943.80     67.78    67.78     12.9       55     58.8     24.3 15126.500     1.19    30098   4967.2   122.19   230411 165254
4944.00     66.97    66.97     13.0       55     58.8     24.1 15246.700     1.19    30025   4894.2   127.64   230411 165305
4944.20     66.82    66.82     12.9       55     58.8     23.9 15412.000     1.19    30116   4985.7  -999.25   230411 165316
4944.40     66.53    66.53     12.8       55     58.8     23.7 15284.300     1.19    30079   4948.4  -999.25   230411 165327
4944.60     66.40    66.40     12.8       55     58.7     23.5 15201.600     1.19    30012   4881.3  -999.25   230411 165337
4944.80     68.72    68.72     12.9       55     58.7     23.3 15351.900     1.19    30031   4899.9  -999.25   230411 165348
4945.00     68.69    68.69     12.9       55     58.7     23.1 15712.500     1.19    30059   4928.6  -999.25   230411 165359
4945.20     65.97    65.97     12.9       55     58.7     22.9 15246.700     1.19    30089   4957.9  -999.25   230411 165410
4945.40     67.41    67.41     12.9       55     58.8     22.7 15381.900     1.19    30100   4969.7   127.64   230411 165420
4945.60     67.58    67.58     13.0       55     58.7     22.5 15385.700     1.19    30064   4932.9   127.64   230411 165431
4945.80     67.96    67.96     12.8       55     58.7     22.3 15333.100     1.19    30082   4951.7   127.64   230411 165442
4946.00     68.27    68.27     13.0       55     58.6     22.1 15423.200     1.19    30173   5042.6   127.64   230411 165452
4946.20     68.02    68.02     13.0       55     58.6     21.9 15490.900     1.19    30252   5121.4   127.64   230411 165503
4946.40     67.34    67.34     12.9       55     58.8     21.7 15460.800     1.19    30245   5114.6   122.19   230411 165514
4946.60     67.62    67.62     12.9       55     58.7     21.5 15596.000     1.19    30278   5147.6   122.19   230411 165524
4946.80     69.87    69.87     12.9       55     58.7     21.3 15622.300     1.19    30299   5168.4   122.19   230411 165534
4947.00     70.29    70.29     12.9       55     58.6     21.1 15513.400     1.19    30317   5186.5   122.19   230411 165545
4947.20     70.00    70.00     13.1       55     58.7     20.9 15442.000     1.19    30315   5184.1   122.19   230411 165555
4947.40     69.68    69.68     13.0       55     58.6     20.7 15490.900     1.19    30345   5214.0   122.19   230411 165605
4947.60     69.56    69.56     12.9       55     58.6     20.5 15351.900     1.19    30418   5286.8  -999.25   230411 165616
4947.80     71.01    71.01     13.0       55     58.8     20.3 15502.100     1.19    30360   5229.3  -999.25   230411 165625
4948.00     73.03    73.03     13.0       55     58.5     20.1 15250.500     1.19    30321   5190.0  -999.25   230411 165635
4948.20     73.14    73.14     13.0       55     58.7     19.9 15513.400     1.19    30337   5206.0  -999.25   230411 165645
4948.40     72.09    72.09     13.0       55     58.6     19.7 15186.600     1.19    30445   5313.9  -999.25   230411 165656
4948.60     71.35    71.35     13.0       55     58.7     19.5 15336.900     1.19    30472   5341.5  -999.25   230411 165705
4948.80     72.80    72.80     13.1       55     58.7     19.3 15415.700     1.19    30492   5361.2  -999.25   230411 165715
4949.00     73.61    73.61     13.0       55     58.6     19.1 15258.000     1.19    30461   5330.6  -999.25   230411 165725
4949.20     73.93    73.93     13.0       55     58.5     18.9 15310.600     1.19    30464   5333.3   122.19   230411 165735
4949.40     73.46    73.46     13.1       55     58.5     18.7 15227.900     1.19    30465   5334.6   122.19   230411 165745
4949.60     72.36    72.36     13.1       55     58.6     18.5 15205.400     1.19    30496   5364.9   122.19   230411 165755
4949.80     73.81    73.81     13.1       55     58.6     18.3 15318.100     1.19    30521   5390.0   122.19   230411 165804
4950.00     74.64    74.64     13.2       55     58.6     18.1 15472.100     1.19    30482   5350.8   122.19   230411 165814
4950.20     74.35    74.35     13.1       55     58.5     17.9 15393.200     1.19    30562   5431.7   122.19   230411 165824
4950.40     74.84    74.84     13.0       55     58.7     17.7 15325.600     1.19    30486   5355.1   122.19   230411 165833
4950.60     75.46    75.46     13.1       55     58.5     17.5 15295.500     1.19    30456   5324.9   119.47   230411 165843
4950.80     75.16    75.16     13.1       55     58.5     17.3 15389.400     1.19    30533   5402.6  -999.25   230411 165853
4951.00     75.16    75.16     13.3       55     58.4     17.1 15453.300     1.19    30542   5411.3  -999.25   230411 165902
4951.20     75.36    75.36     13.1       55     58.4     16.9 15212.900     1.19    30496   5364.9  -999.25   230411 165912
4951.40     74.97    74.97     13.2       56     58.5     16.7 15427.000     1.19    30523   5392.0  -999.25   230411 165922
4951.60     72.94    72.94     13.0       55     58.5     16.5 15318.100     1.19    30537   5406.1  -999.25   230411 165932
4951.80     73.02    73.02     13.1       55     58.6     16.3 15205.400     1.19    30407   5276.3  -999.25   230411 165942
4952.00     73.61    73.61     13.1       55     58.4     16.1 15397.000     1.19    30336   5205.3  -999.25   230411 165951
4952.20     73.93    73.93     13.2       55     58.4     15.9 15412.000     1.19    30308   5177.6  -999.25   230411 170002
4952.40     73.88    73.88     13.2       55     58.4     15.7 15212.900     1.19    30305   5174.6  -999.25   230411 170012
4952.60     71.72    71.72     13.2       55     58.4     15.5 15197.900     1.19    30300   5168.9  -999.25   230411 170022
4952.80     70.15    70.15     13.0       55     58.4     15.3 15205.400     1.19    30195   5064.2  -999.25   230411 170032
4953.00     71.43    71.43     13.2       55     58.4     15.1 15261.700     1.19    30154   5023.0  -999.25   230411 170043
4953.20     71.34    71.34     13.2       55     58.4     14.9 14968.800     1.19    30205   5074.0  -999.25   230411 170053
4953.40     69.97    69.97     13.2       55     58.4     14.7 15201.600     1.19    30223   5092.2  -999.25   230411 170103
4953.60     69.94    69.94     13.1       55     58.4     14.5 15179.100     1.19    30172   5041.7  -999.25   230411 170114
4953.80     69.56    69.56     13.3       55     58.4     14.3 15100.200     1.19    30182   5051.7  -999.25   230411 170124
4954.00     69.06    69.06     13.1       55     58.4     14.1 15276.800     1.19    30173   5041.8  -999.25   230411 170134
4954.20     69.82    69.82     13.2       55     58.4     13.9 15216.700     1.19    30233   5102.4  -999.25   230411 170145
4954.40     69.43    69.43     13.1       55     58.3     13.7 15104.000     1.19    30139   5007.8  -999.25   230411 170156
4954.60     67.93    67.93     13.1       55     58.3     13.5 14983.800     1.19    30105   4974.2  -999.25   230411 170206
4954.80     68.15    68.15     13.2       55     58.3     13.3 15141.500     1.19    30122   4991.5  -999.25   230411 170217
