#Pason DataHub                     Well Dossier No:    28622902
#LAS - Log ASCII Standard         Report Generated:    2023-08-31 16:32:34MDT
~VERSION INFORMATION
VERS.                                          2.0:    CWLS LOG ASCII STANDARD - VERSION 2.0
WRAP.                                           No:    ONE LINE PER DEPTH STEP
~WELL INFORMATION BLOCK
#MNEM.UNIT                                     DATA    DESCRIPTION OF MNEMONIC
#---------                                     ----    -----------------------
STRT.meters                                   0.20:    Start Depth
STOP.meters                                5700.00:    Stop Depth
STEP.meters                                   0.20:    Step Value
NULL.                                      -999.25:    NULL Value
COMP.                           Ovintiv Canada ULC:    Company
WELL.                 OVV HZ 105 WEMBLEY 15-4-73-9:    Well
FLD .                                      WEMBLEY:    Field
LOC .                               15-28-072-09W6:    Location
PROV.                                           AB:    Province
CTRY.                                       Canada:    Country
SRVC.             Precision Drilling, div of PDCLP:    Service Company
DATE.                                             :    Date
UWI .                        105/15-04-073-09W6/00:    Unique Well ID
RIG .                                Precision 535:    Rig
NUM .                                     28622902:    Well Dossier No
~CURVE INFORMATION
#MNEM.UNIT                                 API CODE    CURVE DESCRIPTION
#---------                                 --------    -----------------
DEPT .meters                                   001:      5  Hole Depth
ROP  .m/hr                                        :      3  Rate Of Penetration
OBR  .m/hr                                        :     14  On Bottom ROP
WOB  .kDaN                                        :     13  Weight on Bit
RPM  .RPM                                         :     11  Rotary RPM
HL   .kDaN                                        :      7  Hook Load
BHT  .meters                                      :     28  Block Height
TOR  .                                            :     12  Rotary Torque
TPO  .m3/min                                      :     26  Total Pump Output
SPP  .kPa                                         :      8  Standpipe Pressure
DIFP .kPa                                         :    123  Differential Pressure
GAM  .api                                         :     49  Gamma
DATE .yymmdd                                      :      0  YearMonthDay
TIME .hhmmss                                      :      0  HoursMinutesSeconds
# NOTE: Data generated with Omit Duplicate Depths enabled
~A DEPT       ROP      OBR      WOB      RPM       HL      BHT      TOR      TPO      SPP     DIFP      GAM   YYMMDD HHMMSS
# ...
1156.40    149.22   149.22     13.6       51     39.1      1.6 6735.670     1.29    18536   7627.6  -999.25   230405 200911
1156.60    149.22   149.22     13.3       51     40.1      1.4 6912.200     1.29    18445   7537.3  -999.25   230405 200916
1156.80    148.65   148.65     12.2       50     40.6      1.2 6089.640     1.29    18357   7448.7   109.80   230405 200920
1157.00    149.26   149.26     12.8       50     40.1      1.0 6427.680     1.30    17836   6927.8  -999.25   230405 200925
1157.20    153.45   153.45     13.0       50     39.3      0.8 6536.600     1.29    18125   7216.8  -999.25   230405 200930
1157.40     21.01    21.01      1.9       50     53.1     27.8 2754.330     1.30    10803   -105.2  -999.25   230405 201344
1157.60     47.27    47.27      5.3       50     50.0     27.6 4662.370     1.29    13397   2489.1  -999.25   230405 201351
1157.80     78.24    78.24      5.5       50     47.5     27.4 4512.130     1.29    14994   4086.0  -999.25   230405 201359
1158.00     92.93    92.93      5.8       50     47.1     27.2 4891.480     1.30    15291   4382.9  -999.25   230405 201406
1158.20     97.29    97.29      6.0       50     46.5     27.0 4977.870     1.30    15559   4650.6  -999.25   230405 201414
1158.40     97.32    97.32      5.9       50     46.5     26.8 4733.730     1.30    15602   4694.4   119.89   230405 201421
1158.60     97.54    97.54      5.7       50     46.7     26.6 4778.800     1.30    15698   4790.5   119.89   230405 201428
1158.80     97.84    97.84      5.8       50     46.8     26.4 4977.870     1.30    15593   4685.4   119.89   230405 201436
1159.00     98.01    98.01      6.0       50     46.5     26.2 5064.260     1.30    15585   4677.4   119.89   230405 201443
1159.20     98.13    98.13      6.7       50     45.9     26.0 5229.520     1.29    15861   4953.4   119.89   230405 201450
1159.40     98.05    98.05      7.0       51     45.4     25.8 5387.270     1.30    16082   5174.1   119.89   230405 201458
1159.60     97.81    97.81      7.1       50     45.4     25.6 5255.810     1.30    16201   5293.2  -999.25   230405 201505
1159.80     97.62    97.62      7.2       50     45.4     25.4 5338.450     1.30    16191   5282.8  -999.25   230405 201512
1160.00     97.81    97.81      7.6       50     45.1     25.2 5237.030     1.30    16138   5230.5  -999.25   230405 201520
1160.20     97.84    97.84      7.6       50     44.7     25.0 5244.550     1.30    16243   5335.3  -999.25   230405 201527
1160.40     97.91    97.91      7.8       50     44.7     24.8 5267.080     1.30    16166   5258.4  -999.25   230405 201534
1160.60     98.01    98.01      7.4       50     45.0     24.6 5327.180     1.30    16195   5287.4  -999.25   230405 201542
1160.80     98.01    98.01      7.5       50     44.9     24.4 5578.830     1.30    16065   5157.3  -999.25   230405 201549
1161.00     97.81    97.81      7.6       50     44.6     24.2 5488.690     1.29    16138   5229.9    87.84   230405 201557
1161.20     97.88    97.88      7.8       50     44.5     24.0 5263.320     1.30    16125   5217.3  -999.25   230405 201604
1161.40     98.01    98.01      7.9       50     44.5     23.8 5477.420     1.29    16163   5254.9  -999.25   230405 201611
1161.60     98.08    98.08      7.9       50     44.5     23.6 5218.250     1.29    16164   5255.4  -999.25   230405 201619
1161.80     98.13    98.13      8.1       50     44.2     23.4 5131.870     1.29    16098   5189.7  -999.25   230405 201626
1162.00     98.13    98.13      8.1       50     44.3     23.2 5233.280     1.30    16152   5243.5  -999.25   230405 201633
1162.20     98.18    98.18      8.2       50     44.3     23.0 5334.690     1.30    16253   5345.4    80.12   230405 201641
1162.40     98.60    98.60      7.9       50     44.3     22.8 5315.910     1.30    16273   5364.8  -999.25   230405 201647
1162.60    103.27   103.27     10.5       50     43.7     22.6 6168.520     1.29    16567   5659.4  -999.25   230405 201653
1162.80    112.23   112.23     11.7       50     41.2     22.4 6453.970     1.29    17617   6709.3  -999.25   230405 201658
1163.00    125.02   125.02     12.3       50     40.4     22.2 6746.940     1.29    18126   7218.5  -999.25   230405 201703
1163.20    134.21   134.21     12.9       50     40.0     22.0 6645.530     1.29    18173   7265.1  -999.25   230405 201708
1163.40    138.74   138.74     13.1       50     39.6     21.8 7092.490     1.29    18435   7526.7  -999.25   230405 201713
1163.60    139.06   139.06     13.2       50     39.2     21.6 6852.100     1.29    18432   7523.6  -999.25   230405 201719
1163.80    138.86   138.86     13.2       50     39.6     21.4 7145.070     1.29    18606   7697.4  -999.25   230405 201724
1164.00    138.13   138.13     13.4       50     39.1     21.2 6412.650     1.30    18634   7726.4    80.12   230405 201729
1164.20    136.89   136.89     13.4       50     39.1     21.0 6743.180     1.29    18335   7427.1    80.12   230405 201735
1164.40    134.73   134.73     13.1       50     39.2     20.8 6615.480     1.30    18265   7357.1    80.12   230405 201740
1164.60    131.60   131.60     13.1       50     39.1     20.6 6592.940     1.30    18258   7349.6    80.12   230405 201746
1164.80    129.02   129.02     13.1       50     39.3     20.4 6570.410     1.29    18279   7371.0    69.74   230405 201752
1165.00    128.18   128.18     13.0       50     39.3     20.2 6435.190     1.29    18147   7239.0  -999.25   230405 201757
1165.20    128.35   128.35     13.2       50     39.2     20.0 6499.040     1.29    18120   7212.3  -999.25   230405 201803
1165.40    127.96   127.96     13.3       50     39.3     19.8 6405.140     1.29    18080   7171.9  -999.25   230405 201809
1165.60    126.89   126.89     13.2       50     39.2     19.6 6442.700     1.29    18064   7155.8  -999.25   230405 201815
1165.80    125.26   125.26     13.6       50     39.1     19.4 6386.360     1.30    18027   7119.0  -999.25   230405 201822
1166.00    121.59   121.59     13.4       50     38.9     19.2 6296.220     1.30    18036   7127.6  -999.25   230405 201829
1166.20    113.62   113.62     13.3       50     39.2     19.0 6465.240     1.29    17972   7063.6  -999.25   230405 201837
1166.40    103.28   103.28     13.1       50     39.4     18.8 6581.680     1.29    18039   7131.2  -999.25   230405 201844
1166.60     99.71    99.71     12.7       50     39.9     18.6 6472.750     1.29    18080   7171.9  -999.25   230405 201850
1166.80    106.28   106.28     12.8       50     39.7     18.4 6337.540     1.29    17907   6998.9    49.85   230405 201855
1167.00    115.59   115.59     12.9       50     39.6     18.2 6251.150     1.29    17860   6951.9    49.85   230405 201901
1167.20    121.62   121.62     12.9       50     39.3     18.0 6566.650     1.30    17887   6979.2    49.85   230405 201907
1167.40    124.91   124.91     12.9       51     40.6     17.8 7302.820     1.29    18342   7433.5    49.85   230405 201912
1167.60    128.92   128.92     12.6       51     40.5     17.6 7287.800     1.29    18538   7630.1   105.05   230405 201916
1167.80    136.01   136.01     13.1       50     39.6     17.4 7404.230     1.29    18825   7916.6  -999.25   230405 201921
1168.00    144.40   144.40     12.6       50     40.0     17.2 6946.000     1.30    18967   8058.9  -999.25   230405 201926
1168.20    150.86   150.86     12.7       51     39.7     17.0 6915.960     1.29    18868   7960.1  -999.25   230405 201930
1168.40    154.95   154.95     13.6       51     39.2     16.8 7584.520     1.29    18887   7978.9  -999.25   230405 201935
1168.60    155.49   155.49     13.9       51     39.3     16.6 7509.400     1.29    18901   7993.3  -999.25   230405 201941
1168.80    153.19   153.19     13.0       50     39.8     16.4 7163.850     1.29    18915   8007.1  -999.25   230405 201945
1169.00    149.03   149.03     13.3       51     39.7     16.2 7381.700     1.29    18897   7989.3  -999.25   230405 201950
1169.20    145.17   145.17     13.4       50     39.2     16.0 7456.820     1.29    18895   7987.3  -999.25   230405 201955
