#Pason DataHub                     Well Dossier No:    28622902
#LAS - Log ASCII Standard         Report Generated:    2023-08-31 16:32:34MDT
~VERSION INFORMATION
VERS.                                          2.0:    CWLS LOG ASCII STANDARD - VERSION 2.0
WRAP.                                           No:    ONE LINE PER DEPTH STEP
~WELL INFORMATION BLOCK
#MNEM.UNIT                                     DATA    DESCRIPTION OF MNEMONIC
#---------                                     ----    -----------------------
STRT.meters                                   0.20:    Start Depth
STOP.meters                                5700.00:    Stop Depth
STEP.meters                                   0.20:    Step Value
NULL.                                      -999.25:    NULL Value
COMP.                           Ovintiv Canada ULC:    Company
WELL.                 OVV HZ 105 WEMBLEY 15-4-73-9:    Well
FLD .                                      WEMBLEY:    Field
LOC .                               15-28-072-09W6:    Location
PROV.                                           AB:    Province
CTRY.                                       Canada:    Country
SRVC.             Precision Drilling, div of PDCLP:    Service Company
DATE.                                             :    Date
UWI .                        105/15-04-073-09W6/00:    Unique Well ID
RIG .                                Precision 535:    Rig
NUM .                                     28622902:    Well Dossier No
~CURVE INFORMATION
#MNEM.UNIT                                 API CODE    CURVE DESCRIPTION
#---------                                 --------    -----------------
DEPT .meters                                   001:      5  Hole Depth
ROP  .m/hr                                        :      3  Rate Of Penetration
OBR  .m/hr                                        :     14  On Bottom ROP
WOB  .kDaN                                        :     13  Weight on Bit
RPM  .RPM                                         :     11  Rotary RPM
HL   .kDaN                                        :      7  Hook Load
BHT  .meters                                      :     28  Block Height
TOR  .                                            :     12  Rotary Torque
TPO  .m3/min                                      :     26  Total Pump Output
SPP  .kPa                                         :      8  Standpipe Pressure
DIFP .kPa                                         :    123  Differential Pressure
GAM  .api                                         :     49  Gamma
DATE .yymmdd                                      :      0  YearMonthDay
TIME .hhmmss                                      :      0  HoursMinutesSeconds
# NOTE: Data generated with Omit Duplicate Depths enabled
~A DEPT       ROP      OBR      WOB      RPM       HL      BHT      TOR      TPO      SPP     DIFP      GAM   YYMMDD HHMMSS
# ...
2287.40     41.19    41.19     13.1       30     57.8     13.4 6716.890     1.10    20439   6040.2    48.67   230406 203213
2287.60     40.51    40.51     13.2       30     57.8     13.2 6728.160     1.10    20528   6129.2    60.54   230406 203231
2287.80     40.60    40.60     13.2       30     57.8     13.0 6544.110     1.10    20333   5933.6    73.00   230406 203250
2288.00     38.49    38.49     13.2       30     57.9     12.8 6938.490     1.10    20481   6081.4    73.00   230406 203308
2288.20     41.24    41.24     13.1       30     57.8     12.6 6761.960     1.10    20519   6119.8    73.00   230406 203327
2288.40     40.21    40.21     13.1       30     57.9     12.4 6983.560     1.10    20653   6253.6    73.00   230406 203344
2288.60     42.84    42.84     13.1       30     57.8     12.2 7058.680     1.10    20906   6506.3    57.57   230406 203402
2288.80     42.55    42.55     13.1       30     57.8     12.0 6964.780     1.10    20894   6495.0    59.05   230406 203420
2289.00     40.43    40.43     13.1       30     57.7     11.8 6574.160     1.10    20769   6369.8    57.57   230406 203438
2289.20     39.92    39.92     13.1       30     57.7     11.6 6638.010     1.10    20128   5728.4    59.05   230406 203458
2289.40     36.77    36.77     13.2       30     57.7     11.4 6690.600     1.10    20092   5693.1    71.52   230406 203519
2289.60     38.86    38.86     13.0       30     57.9     11.2 6863.370     1.10    20416   6016.5    71.52   230406 203536
2289.80     42.50    42.50     13.0       31     57.7     11.0 7569.500     1.10    21006   6607.1    62.02   230406 203553
2290.00     42.52    42.52     13.2       30     57.7     10.8 6604.210     1.10    20644   6245.1    35.61   230406 203612
2290.20     40.56    40.56     13.0       30     57.9     10.6 6731.910     1.10    19945   5546.1    24.04   230406 203628
2290.40     47.81    47.81     13.1       30     57.8     10.4 6904.690     1.10    19986   5586.6    21.66   230406 203644
2290.60     47.69    47.69     13.0       30     57.9     10.2 6904.690     1.10    20110   5711.2    27.00   230406 203658
2290.80     49.21    49.21     13.1       30     57.7     10.0 6863.370     1.10    20015   5615.7    28.49   230406 203714
2291.00     46.53    46.53     13.1       30     57.7      9.8 7389.210     1.10    20127   5728.2    31.16   230406 203730
2291.20     48.70    48.70     13.0       30     57.9      9.6 7269.020     1.10    20271   5872.0    21.66   230406 203744
2291.40     49.86    49.86     13.6       30     57.8      9.4 7824.900     1.10    21133   6733.4    17.81   230406 203806
2291.60     34.80    34.80     13.1       30     57.8      9.2 7610.810     1.10    21476   7077.0    11.87   230406 203827
2291.80     36.05    36.05     13.1       30     57.7      9.0 7550.720     1.10    21738   7338.8     4.45   230406 203848
2292.00     34.41    34.41     13.0       30     57.8      8.8 7772.320     1.10    21680   7281.0     5.04   230406 203909
2292.20     35.29    35.29     13.1       30     57.8      8.6 7738.520     1.10    21620   7221.2    21.07   230406 203930
2292.40     40.78    40.78     13.1       30     57.9      8.4 6517.820     1.10    21598   7198.9    24.63   230406 203946
2292.60     41.66    41.66     13.1       30     57.8      8.2 6596.700     1.10    19882   5483.2    51.04   230406 204007
2292.80     38.66    38.66     13.1       30     57.8      8.0 6484.020     1.10    19685   5285.6    51.04   230406 204025
2293.00     40.14    40.14     13.2       30     57.9      7.8 6446.460     1.10    19794   5394.4    62.02   230406 204045
2293.20     37.06    37.06     13.1       30     57.8      7.6 6176.030     1.10    19764   5364.8    62.02   230406 204106
2293.40     34.85    34.85     13.1       30     57.7      7.4 6743.180     1.10    19906   5506.8    69.74   230406 204127
2293.60     39.55    39.55     13.1       30     58.0      7.2 6716.890     1.10    20135   5735.4    73.00   230406 204144
2293.80     40.87    40.87     13.1       30     57.8      7.0 6720.650     1.10    20333   5934.0    74.78   230406 204201
2294.00     41.54    41.54     13.1       30     57.8      6.8 6683.090     1.10    20455   6055.4    40.66   230406 204220
2294.20     39.50    39.50     13.1       30     57.7      6.6 6566.650     1.10    20427   6027.6    59.05   230406 204240
2294.40     36.47    36.47     13.1       30     57.8      6.4 6671.820     1.10    20068   5668.8    59.05   230406 204300
2294.60     37.80    37.80     13.1       30     57.8      6.2 7250.240     1.10    20447   6047.8    31.16   230406 204319
2294.80     38.35    38.35     13.1       30     57.9      6.0 6852.100     1.10    21097   6698.1    46.29   230406 204338
2295.00     38.75    38.75     13.1       30     57.8      5.8 7092.490     1.10    21027   6628.1    46.29   230406 204358
2295.20     39.20    39.20     13.1       30     57.8      5.6 7392.960     1.10    20980   6581.2    73.00   230406 204416
2295.40     40.58    40.58     13.1       30     57.9      5.4 7558.230     1.10    21282   6882.5    69.74   230406 204433
2295.60     42.40    42.40     13.2       30     57.8      5.2 6961.030     1.10    20361   5961.4    69.74   230406 204452
2295.80     39.33    39.33     13.3       30     57.8      5.0 7242.730     1.10    21230   6830.9    42.73   230406 204513
2296.00     36.03    36.03     13.2       30     57.8      4.8 7445.550     1.10    21666   7266.9    42.73   230406 204533
2296.20     39.44    39.44     13.1       31     57.9      4.6 7708.470     1.10    21645   7245.7    40.66   230406 204550
2296.40     40.75    40.75     13.1       30     57.7      4.4 6299.970     1.10    20165   5765.9    40.66   230406 204612
2296.60     34.75    34.75     13.1       30     57.7      4.2 6063.350     1.10    19454   5054.5    40.66   230406 204634
2296.80     33.74    33.74     13.0       30     57.9      4.0 6007.010     1.10    19329   4930.1    40.66   230406 204655
2297.00     34.19    34.19     13.0       30     57.8      3.8 6108.420     1.10    19376   4977.2    43.92   230406 204716
2297.20     34.58    34.58     13.1       30     57.8      3.6 6281.200     1.10    19483   5084.1    43.92   230406 204738
2297.40     34.80    34.80     13.1       30     57.9      3.4 6217.350     1.10    19458   5058.4    43.92   230406 204759
2297.60     34.70    34.70     13.0       30     57.8      3.2 6179.780     1.10    19661   5262.2    28.49   230406 204818
2297.80     37.29    37.29     13.1       30     57.8      3.0 6044.570     1.10    19516   5116.3    28.49   230406 204838
2298.00     38.12    38.12     13.1       30     57.8      2.8 6070.860     1.10    19588   5188.4    28.49   230406 204857
2298.20     36.99    36.99     13.1       30     57.8      2.6 5976.960     1.10    19514   5115.0    16.02   230406 204918
2298.40     36.06    36.06     13.1       30     57.7      2.4 6055.840     1.10    19446   5046.3    21.66   230406 204938
2298.60     35.81    35.81     13.1       30     57.8      2.2 6093.400     1.10    19436   5036.9    21.66   230406 204958
2298.80     35.43    35.43     13.1       30     57.8      2.0 6067.110     1.10    19502   5102.9    23.15   230406 205018
2299.00     36.69    36.69     13.1       30     57.9      1.8 6442.700     1.10    19296   4897.1    23.15   230406 205040
2299.20     36.00    36.00     13.1       30     57.9      1.6 6179.780     1.10    19692   5292.5    23.15   230406 205059
2299.40     36.57    36.57     13.1       30     57.8      1.4 6033.300     1.10    19398   4998.5    23.15   230406 205121
2299.60     37.73    37.73     13.2       30     57.9      1.2 6536.600     1.10    19587   5188.0    21.07   230406 205140
2299.80     37.71    37.71     13.0       30     57.8      1.0 6795.770     1.10    20540   6141.0    71.52   230406 205200
2300.00     37.60    37.60     13.0       30     57.7      0.8 6547.870     1.10    20121   5721.4    71.52   230406 205219
2300.20     38.20    38.20     13.2       30     57.7      0.6 6123.440     1.10    20088   5688.4    71.52   230406 205240
