#Pason DataHub                     Well Dossier No:    28622902
#LAS - Log ASCII Standard         Report Generated:    2023-08-31 16:32:34MDT
~VERSION INFORMATION
VERS.                                          2.0:    CWLS LOG ASCII STANDARD - VERSION 2.0
WRAP.                                           No:    ONE LINE PER DEPTH STEP
~WELL INFORMATION BLOCK
#MNEM.UNIT                                     DATA    DESCRIPTION OF MNEMONIC
#---------                                     ----    -----------------------
STRT.meters                                   0.20:    Start Depth
STOP.meters                                5700.00:    Stop Depth
STEP.meters                                   0.20:    Step Value
NULL.                                      -999.25:    NULL Value
COMP.                           Ovintiv Canada ULC:    Company
WELL.                 OVV HZ 105 WEMBLEY 15-4-73-9:    Well
FLD .                                      WEMBLEY:    Field
LOC .                               15-28-072-09W6:    Location
PROV.                                           AB:    Province
CTRY.                                       Canada:    Country
SRVC.             Precision Drilling, div of PDCLP:    Service Company
DATE.                                             :    Date
UWI .                        105/15-04-073-09W6/00:    Unique Well ID
RIG .                                Precision 535:    Rig
NUM .                                     28622902:    Well Dossier No
~CURVE INFORMATION
#MNEM.UNIT                                 API CODE    CURVE DESCRIPTION
#---------                                 --------    -----------------
DEPT .meters                                   001:      5  Hole Depth
ROP  .m/hr                                        :      3  Rate Of Penetration
OBR  .m/hr                                        :     14  On Bottom ROP
WOB  .kDaN                                        :     13  Weight on Bit
RPM  .RPM                                         :     11  Rotary RPM
HL   .kDaN                                        :      7  Hook Load
BHT  .meters                                      :     28  Block Height
TOR  .                                            :     12  Rotary Torque
TPO  .m3/min                                      :     26  Total Pump Output
SPP  .kPa                                         :      8  Standpipe Pressure
DIFP .kPa                                         :    123  Differential Pressure
GAM  .api                                         :     49  Gamma
DATE .yymmdd                                      :      0  YearMonthDay
TIME .hhmmss                                      :      0  HoursMinutesSeconds
# NOTE: Data generated with Omit Duplicate Depths enabled
~A DEPT       ROP      OBR      WOB      RPM       HL      BHT      TOR      TPO      SPP     DIFP      GAM   YYMMDD HHMMSS
0.20        24.35    24.35      0.0        0     21.4     10.7    0.000     0.00        0 -23170.9  -999.25   230403 221815
0.40      -999.25  -999.25  -999.25  -999.25  -999.25  -999.25  -999.25  -999.25  -999.25  -999.25  -999.25   230403 221815
0.60        61.35    61.35      0.0        0     21.6     10.2    0.000     0.00        0 -23170.9  -999.25   230403 221816
0.80      -999.25  -999.25  -999.25  -999.25  -999.25  -999.25  -999.25  -999.25  -999.25  -999.25  -999.25   230403 221816
1.00       115.97   115.97      0.0        0     21.4      9.8    0.000     0.00        0 -23170.9  -999.25   230403 221817
1.20      -999.25  -999.25  -999.25  -999.25  -999.25  -999.25  -999.25  -999.25  -999.25  -999.25  -999.25   230403 221817
1.40       141.82   141.82      0.0        0     21.4      9.4    0.000     0.00        0 -23170.9  -999.25   230403 221818
1.60      -999.25  -999.25  -999.25  -999.25  -999.25  -999.25  -999.25  -999.25  -999.25  -999.25  -999.25   230403 221818
1.80       187.25   187.25      0.0        0     21.4      9.0    0.000     0.00        0 -23170.9  -999.25   230403 221819
2.00      -999.25  -999.25  -999.25  -999.25  -999.25  -999.25  -999.25  -999.25  -999.25  -999.25  -999.25   230403 221819
2.20       234.95   234.95      0.0        0     21.4      8.6    0.000     0.00        0 -23170.9  -999.25   230403 221820
2.40      -999.25  -999.25  -999.25  -999.25  -999.25  -999.25  -999.25  -999.25  -999.25  -999.25  -999.25   230403 221820
2.60       274.56   274.56      0.0        0     21.4      8.1    0.000     0.00        0 -23170.9  -999.25   230403 221821
2.80      -999.25  -999.25  -999.25  -999.25  -999.25  -999.25  -999.25  -999.25  -999.25  -999.25  -999.25   230403 221821
3.00      -999.25  -999.25  -999.25  -999.25  -999.25  -999.25  -999.25  -999.25  -999.25  -999.25  -999.25   230403 221821
3.20       335.77   335.77      0.0        0     21.4      7.6    0.000     0.00        0 -23170.9  -999.25   230403 221822
3.40      -999.25  -999.25  -999.25  -999.25  -999.25  -999.25  -999.25  -999.25  -999.25  -999.25  -999.25   230403 221822
3.60      -999.25  -999.25  -999.25  -999.25  -999.25  -999.25  -999.25  -999.25  -999.25  -999.25  -999.25   230403 221822
3.80       410.03   410.03      0.0        0     21.3      7.0    0.000     0.00        0 -23170.9  -999.25   230403 221823
4.00      -999.25  -999.25  -999.25  -999.25  -999.25  -999.25  -999.25  -999.25  -999.25  -999.25  -999.25   230403 221823
4.20       442.57   442.57      0.0        0     21.3      6.6    0.000     0.00        0 -23170.9  -999.25   230403 221824
4.40      -999.25  -999.25  -999.25  -999.25  -999.25  -999.25  -999.25  -999.25  -999.25  -999.25  -999.25   230403 221824
4.60       497.44   497.44      0.0        0     21.3      6.2    0.000     0.00        0 -23170.9  -999.25   230403 221825
4.80      -999.25  -999.25  -999.25  -999.25  -999.25  -999.25  -999.25  -999.25  -999.25  -999.25  -999.25   230403 221825
5.00      -999.25  -999.25  -999.25  -999.25  -999.25  -999.25  -999.25  -999.25  -999.25  -999.25  -999.25   230403 221825
5.20       563.76   563.76      0.0        0     21.1      5.5    0.000     0.00        0 -23170.9  -999.25   230403 221826
5.40       606.82   606.82      0.0        0     21.0      5.4    0.000     0.00        0 -23170.9  -999.25   230403 221827
5.60      -999.25  -999.25  -999.25  -999.25  -999.25  -999.25  -999.25  -999.25  -999.25  -999.25  -999.25   230403 221827
5.80       659.46   659.46      0.0        0     21.2      5.0    0.000     0.00        0 -23170.9  -999.25   230403 221828
6.00      -999.25  -999.25  -999.25  -999.25  -999.25  -999.25  -999.25  -999.25  -999.25  -999.25  -999.25   230403 221828
6.20       719.44   719.44      0.0        0     21.2      4.6    0.000     0.00        0 -23170.9  -999.25   230403 221829
6.40      -999.25  -999.25  -999.25  -999.25  -999.25  -999.25  -999.25  -999.25  -999.25  -999.25  -999.25   230403 221829
6.60       837.33   837.33      0.0        0     21.2      4.2    0.000     0.00        0 -23170.9  -999.25   230403 221830
6.80      -999.25  -999.25  -999.25  -999.25  -999.25  -999.25  -999.25  -999.25  -999.25  -999.25  -999.25   230403 221830
7.00       922.23   922.23      0.0        0     21.2      3.8    0.000     0.00        0 -23170.9  -999.25   230403 221831
7.20      -999.25  -999.25  -999.25  -999.25  -999.25  -999.25  -999.25  -999.25  -999.25  -999.25  -999.25   230403 221831
7.40      1029.60  1029.60      0.0        0     21.1      3.4    0.000     0.00        0 -23170.9  -999.25   230403 221832
7.60      -999.25  -999.25  -999.25  -999.25  -999.25  -999.25  -999.25  -999.25  -999.25  -999.25  -999.25   230403 221832
7.80      1106.18  1106.18      0.0        0     21.1      3.0    0.000     0.00        0 -23170.9  -999.25   230403 221833
8.00      -999.25  -999.25  -999.25  -999.25  -999.25  -999.25  -999.25  -999.25  -999.25  -999.25  -999.25   230403 221833
8.20      1182.29  1182.29      0.0        0     21.1      2.6    0.000     0.00        0 -23170.9  -999.25   230403 221834
8.40      -999.25  -999.25  -999.25  -999.25  -999.25  -999.25  -999.25  -999.25  -999.25  -999.25  -999.25   230403 221834
8.60      1274.30  1274.30      0.0        0     20.9      2.2    0.000     0.00        0 -23170.9  -999.25   230403 221835
8.80      1388.32  1388.32      0.0        0     20.6      5.0    0.000     0.00        0 -23170.9  -999.25   230403 222151
9.00         0.12     0.12      0.0        0     17.5      4.9    0.000     0.00        0 -23170.9  -999.25   230403 222152
9.20         0.23     0.23      0.0        0     17.6      4.6    0.000     0.00        0 -23170.9  -999.25   230403 222153
9.40         0.54     0.54      0.0        0     17.6      4.5    0.000     0.00        0 -23170.9  -999.25   230403 222154
9.60      -999.25  -999.25  -999.25  -999.25  -999.25  -999.25  -999.25  -999.25  -999.25  -999.25  -999.25   230403 222154
9.80         1.08     1.08      0.0        0     17.5      4.0    0.000     0.00        0 -23170.9  -999.25   230403 222155
10.00     -999.25  -999.25  -999.25  -999.25  -999.25  -999.25  -999.25  -999.25  -999.25  -999.25  -999.25   230403 222155
10.20        1.92     1.92      0.0        0     17.5      3.6    0.000     0.00        0 -23170.9  -999.25   230403 222156
10.40     -999.25  -999.25  -999.25  -999.25  -999.25  -999.25  -999.25  -999.25  -999.25  -999.25  -999.25   230403 222156
10.60        3.19     3.19      0.0        0     17.3      3.2    0.000     0.00        0 -23170.9  -999.25   230403 222157
10.80     -999.25  -999.25  -999.25  -999.25  -999.25  -999.25  -999.25  -999.25  -999.25  -999.25  -999.25   230403 222157
11.00        5.45     5.45      0.0        0     17.1      2.8    0.000     0.00        0 -23170.9  -999.25   230403 222158
11.20        8.00     8.00      0.0        0     17.3      2.7    0.000     0.00        0 -23170.9  -999.25   230403 222159
11.40       10.62    10.62      0.0        0     17.4      2.5    0.000     0.00        0 -23170.9  -999.25   230403 222200
11.60       14.92    14.92      0.0        0     17.2      2.3    0.000     0.00        0 -23170.9  -999.25   230403 222201
11.80       20.66    20.66      0.0        0     17.1      2.1    0.000     0.00        0 -23170.9  -999.25   230403 222202
12.00       34.23    34.23      0.0        0     17.1      1.9    0.000     0.00        0 -23170.9  -999.25   230403 222203
12.20       19.46    19.46      0.0        0     21.6     11.1    0.000     0.00        0 -23170.9  -999.25   230403 223043
12.40       49.39    49.39      0.0        0     21.6     10.8    0.000     0.00        0 -23170.9  -999.25   230403 223044
12.60     -999.25  -999.25  -999.25  -999.25  -999.25  -999.25  -999.25  -999.25  -999.25  -999.25  -999.25   230403 223044
12.80       89.58    89.58      0.0        0     21.6     10.5    0.000     0.00        0 -23170.9  -999.25   230403 223045
13.00     -999.25  -999.25  -999.25  -999.25  -999.25  -999.25  -999.25  -999.25  -999.25  -999.25  -999.25   230403 223045
