#Pason DataHub                     Well Dossier No:    28622902
#LAS - Log ASCII Standard         Report Generated:    2023-08-31 16:32:34MDT
~VERSION INFORMATION
VERS.                                          2.0:    CWLS LOG ASCII STANDARD - VERSION 2.0
WRAP.                                           No:    ONE LINE PER DEPTH STEP
~WELL INFORMATION BLOCK
#MNEM.UNIT                                     DATA    DESCRIPTION OF MNEMONIC
#---------                                     ----    -----------------------
STRT.meters                                   0.20:    Start Depth
STOP.meters                                5700.00:    Stop Depth
STEP.meters                                   0.20:    Step Value
NULL.                                      -999.25:    NULL Value
COMP.                           Ovintiv Canada ULC:    Company
WELL.                 OVV HZ 105 WEMBLEY 15-4-73-9:    Well
FLD .                                      WEMBLEY:    Field
LOC .                               15-28-072-09W6:    Location
PROV.                                           AB:    Province
CTRY.                                       Canada:    Country
SRVC.             Precision Drilling, div of PDCLP:    Service Company
DATE.                                             :    Date
UWI .                        105/15-04-073-09W6/00:    Unique Well ID
RIG .                                Precision 535:    Rig
NUM .                                     28622902:    Well Dossier No
~CURVE INFORMATION
#MNEM.UNIT                                 API CODE    CURVE DESCRIPTION
#---------                                 --------    -----------------
DEPT .meters                                   001:      5  Hole Depth
ROP  .m/hr                                        :      3  Rate Of Penetration
OBR  .m/hr                                        :     14  On Bottom ROP
WOB  .kDaN                                        :     13  Weight on Bit
RPM  .RPM                                         :     11  Rotary RPM
HL   .kDaN                                        :      7  Hook Load
BHT  .meters                                      :     28  Block Height
TOR  .                                            :     12  Rotary Torque
TPO  .m3/min                                      :     26  Total Pump Output
SPP  .kPa                                         :      8  Standpipe Pressure
DIFP .kPa                                         :    123  Differential Pressure
GAM  .api                                         :     49  Gamma
DATE .yymmdd                                      :      0  YearMonthDay
TIME .hhmmss                                      :      0  HoursMinutesSeconds
# NOTE: Data generated with Omit Duplicate Depths enabled
~A DEPT       ROP      OBR      WOB      RPM       HL      BHT      TOR      TPO      SPP     DIFP      GAM   YYMMDD HHMMSS
# ...
3431.20     70.76    70.76     12.0       55     57.5      5.6 10063.500     1.19    25532   5553.5  -999.25   230410 035531
3431.40     69.76    69.76     11.9       55     57.4      5.4 10104.800     1.19    25488   5508.5  -999.25   230410 035542
3431.60     68.19    68.19     11.9       55     57.3      5.2 9977.080     1.19    25412   5432.6  -999.25   230410 035552
3431.80     68.35    68.35     12.0       55     57.4      5.0 9905.710     1.19    25419   5439.6  -999.25   230410 035603
3432.00     68.72    68.72     11.9       55     57.5      4.8 9920.740     1.19    25277   5298.3  -999.25   230410 035613
3432.20     70.27    70.27     12.0       55     57.3      4.6 10029.700     1.19    25402   5423.0  -999.25   230410 035623
3432.40     70.39    70.39     12.1       55     57.2      4.4 10040.900     1.19    25409   5430.4  -999.25   230410 035635
3432.60      7.03     7.03      4.1       55     65.5     31.8 6476.510     1.20    20982   1003.1  -999.25   230410 041137
3432.80     26.92    26.92      6.6       55     64.9     31.7 8005.190     1.20    21983   2004.2   104.65   230410 041147
3433.00     62.41    62.41      8.0       55     62.4     31.5 8797.700     1.20    23092   3113.4  -999.25   230410 041157
3433.20     72.92    72.92      9.4       55     60.9     31.3 9398.660     1.20    24122   4142.6  -999.25   230410 041206
3433.40     72.87    72.87     10.0       55     59.7     31.1 9774.260     1.20    24850   4870.8  -999.25   230410 041216
3433.60     72.67    72.67     10.3       55     59.4     30.9 10067.200     1.20    25272   5292.5  -999.25   230410 041226
3433.80     72.83    72.83     10.7       55     59.1     30.7 10146.100     1.20    25588   5608.6  -999.25   230410 041236
3434.00     72.73    72.73     10.7       55     58.7     30.5 10266.300     1.20    25667   5688.3  -999.25   230410 041246
3434.20     72.19    72.19     10.8       55     58.7     30.3 10176.100     1.20    25777   5797.9   104.65   230410 041256
3434.40     72.50    72.50     10.9       55     58.6     30.1 10228.700     1.20    25812   5833.1   104.65   230410 041306
3434.60     72.53    72.53     10.9       55     58.5     29.9 10164.900     1.20    25861   5882.0   104.65   230410 041316
3434.80     72.39    72.39     10.9       55     58.8     29.7 10266.300     1.20    25866   5887.1   104.65   230410 041326
3435.00     72.97    72.97     10.8       55     58.6     29.5 10206.200     1.20    25867   5887.8   104.65   230410 041336
3435.20     73.22    73.22     11.0       55     58.4     29.3 10240.000     1.20    25941   5961.8  -999.25   230410 041346
3435.40     73.14    73.14     10.9       55     58.5     29.1 10401.500     1.20    25916   5936.9  -999.25   230410 041356
3435.60     72.78    72.78     10.9       55     58.5     28.9 10371.500     1.20    25867   5887.9  -999.25   230410 041405
3435.80     73.19    73.19     10.9       55     58.5     28.7 10281.300     1.20    25872   5893.0  -999.25   230410 041415
3436.00     73.37    73.37     10.9       55     58.5     28.5 10337.700     1.20    25905   5926.0  -999.25   230410 041425
3436.20     74.92    74.92     11.1       55     58.3     28.3 10502.900     1.20    25973   5993.6  -999.25   230410 041434
3436.40     76.17    76.17     11.3       55     58.2     28.1 10551.700     1.20    26206   6226.6  -999.25   230410 041444
3436.60     75.80    75.80     11.1       55     58.3     27.9 10472.900     1.20    26122   6142.7  -999.25   230410 041454
3436.80     74.45    74.45     11.1       55     58.4     27.7 10442.800     1.20    26001   6022.2   104.65   230410 041503
3437.00     76.24    76.24     11.3       55     58.2     27.5 10499.200     1.20    26105   6126.0  -999.25   230410 041513
3437.20     76.17    76.17     11.2       55     58.3     27.3 10379.000     1.20    26133   6154.2  -999.25   230410 041522
3437.40     75.13    75.13     11.1       55     58.2     27.1 10420.300     1.20    26187   6208.3  -999.25   230410 041532
3437.60     75.34    75.34     11.2       55     58.1     26.9 10454.100     1.20    26095   6115.5  -999.25   230410 041541
3437.80     75.29    75.29     11.2       55     58.3     26.7 10544.200     1.20    26229   6250.1  -999.25   230410 041551
3438.00     75.76    75.76     11.2       55     58.3     26.5 10548.000     1.20    26164   6184.6  -999.25   230410 041600
3438.20     77.70    77.70     11.2       55     58.1     26.3 10623.100     1.20    26137   6158.1   107.07   230410 041610
3438.40     77.82    77.82     11.3       55     58.2     26.1 10649.400     1.20    26198   6219.2  -999.25   230410 041619
3438.60     76.44    76.44     11.2       55     58.3     25.9 10585.500     1.20    26317   6337.7  -999.25   230410 041628
3438.80     77.50    77.50     11.3       55     58.3     25.7 10754.600     1.20    26331   6351.6  -999.25   230410 041637
3439.00     80.64    80.64     11.2       55     58.2     25.5 10788.400     1.20    26572   6592.9  -999.25   230410 041646
3439.20     82.03    82.03     11.4       55     58.2     25.3 10743.300     1.20    26570   6590.9  -999.25   230410 041655
3439.40     82.00    82.00     11.3       55     58.1     25.1 10720.800     1.20    26605   6625.9  -999.25   230410 041704
3439.60     81.06    81.06     11.3       55     58.2     24.9 10694.500     1.20    26546   6566.8  -999.25   230410 041713
3439.80     80.37    80.37     11.2       55     58.2     24.7 10611.800     1.20    26489   6510.2  -999.25   230410 041722
3440.00     82.13    82.13     11.2       55     58.1     24.5 10942.400     1.20    26506   6526.8   107.07   230410 041731
3440.20     83.04    83.04     11.3       55     58.1     24.3 10972.400     1.20    26619   6640.4   107.07   230410 041739
3440.40     82.70    82.70     11.3       55     58.2     24.1 10931.100     1.20    26757   6778.0   107.07   230410 041748
3440.60     83.76    83.76     11.2       55     58.1     23.9 10912.300     1.20    26895   6915.9   107.07   230410 041756
3440.80     86.58    86.58     11.2       55     58.0     23.7 10957.400     1.20    26990   7011.1   116.75   230410 041804
3441.00     87.70    87.70     11.2       55     58.1     23.5 10972.400     1.20    27064   7085.3  -999.25   230410 041812
3441.20     88.70    88.70     11.4       55     58.0     23.3 10983.700     1.20    27083   7103.9  -999.25   230410 041820
3441.40     89.57    89.57     11.4       55     58.0     23.1 11006.200     1.20    27091   7112.4  -999.25   230410 041828
3441.60     89.57    89.57     11.4       55     58.1     22.9 11013.700     1.20    27056   7077.4  -999.25   230410 041837
3441.80     88.56    88.56     11.4       55     58.1     22.7 10897.300     1.20    27110   7131.0  -999.25   230410 041845
3442.00     89.30    89.30     11.4       55     58.1     22.5 10927.300     1.20    27153   7173.7  -999.25   230410 041853
3442.20     90.44    90.44     11.3       55     58.1     22.3 10931.100     1.20    27098   7119.0   116.75   230410 041900
3442.40     90.81    90.81     11.3       55     58.2     22.1 10897.300     1.20    27166   7186.9   116.75   230410 041908
3442.60     90.93    90.93     11.5       55     58.0     21.9 10946.100     1.20    27208   7228.9   116.75   230410 041916
3442.80     90.83    90.83     11.4       55     58.1     21.7 10938.600     1.20    27275   7296.2   116.75   230410 041924
3443.00     90.79    90.79     11.3       55     58.1     21.5 10882.300     1.20    27129   7150.1   116.75   230410 041932
3443.20     92.83    92.83     11.4       60     58.1     21.3 12392.200     1.20    27174   7194.8  -999.25   230410 041940
3443.40     93.62    93.62     11.3       60     58.0     21.1 11562.100     1.20    27302   7322.9  -999.25   230410 041947
3443.60     94.11    94.11     11.3       60     58.1     20.9 11554.600     1.20    27435   7455.6  -999.25   230410 041955
3443.80     95.28    95.28     11.3       60     58.1     20.7 11468.200     1.20    27466   7486.9  -999.25   230410 042002
3444.00     96.07    96.07     11.4       60     58.1     20.5 11505.800     1.20    27466   7486.5  -999.25   230410 042010
