#Pason DataHub                     Well Dossier No:    28622902
#LAS - Log ASCII Standard         Report Generated:    2023-08-31 16:32:34MDT
~VERSION INFORMATION
VERS.                                          2.0:    CWLS LOG ASCII STANDARD - VERSION 2.0
WRAP.                                           No:    ONE LINE PER DEPTH STEP
~WELL INFORMATION BLOCK
#MNEM.UNIT                                     DATA    DESCRIPTION OF MNEMONIC
#---------                                     ----    -----------------------
STRT.meters                                   0.20:    Start Depth
STOP.meters                                5700.00:    Stop Depth
STEP.meters                                   0.20:    Step Value
NULL.                                      -999.25:    NULL Value
COMP.                           Ovintiv Canada ULC:    Company
WELL.                 OVV HZ 105 WEMBLEY 15-4-73-9:    Well
FLD .                                      WEMBLEY:    Field
LOC .                               15-28-072-09W6:    Location
PROV.                                           AB:    Province
CTRY.                                       Canada:    Country
SRVC.             Precision Drilling, div of PDCLP:    Service Company
DATE.                                             :    Date
UWI .                        105/15-04-073-09W6/00:    Unique Well ID
RIG .                                Precision 535:    Rig
NUM .                                     28622902:    Well Dossier No
~CURVE INFORMATION
#MNEM.UNIT                                 API CODE    CURVE DESCRIPTION
#---------                                 --------    -----------------
DEPT .meters                                   001:      5  Hole Depth
ROP  .m/hr                                        :      3  Rate Of Penetration
OBR  .m/hr                                        :     14  On Bottom ROP
WOB  .kDaN                                        :     13  Weight on Bit
RPM  .RPM                                         :     11  Rotary RPM
HL   .kDaN                                        :      7  Hook Load
BHT  .meters                                      :     28  Block Height
TOR  .                                            :     12  Rotary Torque
TPO  .m3/min                                      :     26  Total Pump Output
SPP  .kPa                                         :      8  Standpipe Pressure
DIFP .kPa                                         :    123  Differential Pressure
GAM  .api                                         :     49  Gamma
DATE .yymmdd                                      :      0  YearMonthDay
TIME .hhmmss                                      :      0  HoursMinutesSeconds
# NOTE: Data generated with Omit Duplicate Depths enabled
~A DEPT       ROP      OBR      WOB      RPM       HL      BHT      TOR      TPO      SPP     DIFP      GAM   YYMMDD HHMMSS
# ...
2664.40     30.61    30.61      8.3       40     55.2     24.4 6908.440     1.09    17109   2775.7  -999.25   230409 003014
2664.60     67.13    67.13      9.9       40     53.3     24.2 7531.940     1.09    18744   4411.6  -999.25   230409 003023
2664.80     81.60    81.60     10.1       40     51.9     24.0 7817.390     1.09    19284   4950.7  -999.25   230409 003032
2665.00     81.01    81.01     10.3       40     51.6     23.8 7749.780     1.09    19807   5473.9  -999.25   230409 003043
2665.20     74.82    74.82     10.2       40     51.7     23.6 7734.760     1.09    19933   5599.9   119.47   230409 003053
2665.40     70.96    70.96     10.2       40     51.7     23.4 7806.120     1.09    19928   5595.6   119.47   230409 003102
2665.60     74.10    74.10     10.1       40     51.6     23.2 7918.800     1.09    20017   5684.1   119.47   230409 003112
2665.80     75.92    75.92     10.2       40     51.6     23.0 8005.190     1.09    20232   5898.9   119.47   230409 003121
2666.00     76.14    76.14     10.2       40     51.7     22.8 8038.990     1.09    20234   5901.5   122.19   230409 003131
2666.20     76.80    76.80     10.2       40     51.7     22.6 7892.510     1.09    20353   6020.1  -999.25   230409 003140
2666.40     78.31    78.31     10.3       40     51.7     22.4 7896.270     1.09    20284   5951.6  -999.25   230409 003149
2666.60     80.19    80.19     10.3       40     51.6     22.2 7828.660     1.09    20371   6038.2  -999.25   230409 003158
2666.80     81.48    81.48     10.1       40     51.7     22.0 7941.340     1.09    20382   6049.5  -999.25   230409 003206
2667.00     82.25    82.25     10.5       40     51.6     21.8 7888.760     1.09    20357   6023.9  -999.25   230409 003215
2667.20     82.22    82.22     10.3       40     51.6     21.6 7787.340     1.09    20335   6001.7  -999.25   230409 003224
2667.40     80.92    80.92     10.3       40     51.6     21.4 7783.590     1.09    20213   5879.8   122.19   230409 003233
2667.60     81.75    81.75     10.5       40     51.6     21.2 7794.860     1.09    20262   5929.1  -999.25   230409 003242
2667.80     81.77    81.77     10.3       40     51.6     21.0 7798.610     1.09    20264   5930.7  -999.25   230409 003251
2668.00     81.40    81.40     10.3       40     51.6     20.8 7749.780     1.09    20257   5924.4  -999.25   230409 003300
2668.20     80.90    80.90     10.4       40     51.5     20.6 7633.350     1.09    20236   5903.1  -999.25   230409 003309
2668.40     80.06    80.06     10.2       40     51.6     20.4 7655.880     1.09    20188   5855.4  -999.25   230409 003318
2668.60     78.75    78.75     10.2       40     51.6     20.2 7644.620     1.09    20180   5847.5   109.49   230409 003327
2668.80     78.90    78.90     10.3       40     51.6     20.0 7674.660     1.09    20094   5761.2  -999.25   230409 003337
2669.00     78.99    78.99     10.5       40     51.6     19.8 7494.380     1.09    20094   5761.6  -999.25   230409 003346
2669.20     77.10    77.10     10.5       40     51.5     19.6 7479.350     1.09    20012   5678.6  -999.25   230409 003357
2669.40     73.54    73.54     10.3       40     51.6     19.4 7475.600     1.09    19977   5644.3  -999.25   230409 003407
2669.60     71.30    71.30     10.3       40     51.6     19.2 7400.480     1.09    19874   5541.1  -999.25   230409 003417
2669.80     70.61    70.61     10.5       40     51.6     19.0 7389.210     1.09    19772   5438.6  -999.25   230409 003427
2670.00     70.29    70.29     10.4       40     51.6     18.8 7340.380     1.09    19714   5380.6   104.65   230409 003438
2670.20     69.78    69.78     10.4       40     51.6     18.6 7366.670     1.10    19794   5460.6   104.65   230409 003449
2670.40     68.44    68.44     10.3       40     51.6     18.4 7381.700     1.09    19785   5452.5   104.65   230409 003459
2670.60     69.53    69.53     10.4       40     51.6     18.2 7381.700     1.09    19783   5450.3   100.11   230409 003509
2670.80     70.27    70.27     10.3       40     51.5     18.0 7456.820     1.09    19869   5536.2   107.07   230409 003520
2671.00     70.39    70.39     10.3       40     51.6     17.8 7370.430     1.09    19876   5543.2   107.07   230409 003530
2671.20     70.58    70.58     10.4       40     51.5     17.6 7438.040     1.09    19825   5491.7   107.07   230409 003540
2671.40     70.85    70.85     10.4       40     51.5     17.4 7407.990     1.09    19875   5541.9   107.07   230409 003550
2671.60     70.58    70.58     10.3       40     51.6     17.2 7498.130     1.09    19787   5454.5   107.07   230409 003600
2671.80     71.66    71.66     10.3       40     51.6     17.0 7468.090     1.09    19823   5490.1   111.91   230409 003610
2672.00     73.04    73.04     10.4       40     51.5     16.8 7486.860     1.09    19882   5548.9   111.91   230409 003620
2672.20     73.04    73.04     10.4       40     51.5     16.6 7554.470     1.09    20036   5703.1   111.91   230409 003630
2672.40     12.83    12.83      7.9        0     54.9     16.4 1789.050     1.09    15975   1642.3   111.91   230409 004608
2672.60     19.98    19.98      8.5        0     53.6     16.2 1759.000     1.09    16157   1823.8   111.91   230409 004644
2672.80     20.50    20.50      8.8        0     53.2     16.0 1736.460     1.09    16287   1954.2   119.47   230409 004720
2673.00     20.61    20.61      9.1        0     52.9     15.8 1706.410     1.09    16362   2029.5   119.47   230409 004754
2673.20     20.70    20.70      9.3        0     52.8     15.6 1706.410     1.09    16436   2102.6   119.47   230409 004830
2673.40     20.71    20.71      9.2        6     52.8     15.4 5173.180     1.09    16440   2107.2   119.47   230409 004904
2673.60     20.60    20.60      9.0        0     53.3     15.2 1751.490     1.09    16409   2076.2   119.47   230409 004942
2673.80     19.11    19.11      8.3        0     53.9     15.0 1751.490     1.10    16408   2074.6   119.47   230409 005023
2674.00     17.49    17.49      7.9        0     54.1     14.8 1751.490     1.10    16219   1885.8   119.47   230409 005105
2674.20     17.49    17.49      8.0        0     54.3     14.6 1755.240     1.09    16112   1779.2   119.47   230409 005146
2674.40     17.57    17.57      8.3        0     53.9     14.4 1755.240     1.10    16114   1781.3   119.47   230409 005227
2674.60     19.70    19.70      8.4        3     53.7     14.2 4264.230     1.09    16346   2012.8   119.47   230409 005304
2674.80     19.79    19.79      8.5        0     53.6     14.0 1097.940     1.09    16354   2021.5   119.47   230409 005341
2675.00     19.81    19.81      8.5        0     53.5     13.8 1101.700     1.09    16276   1943.0   119.47   230409 005417
2675.20     19.83    19.83      8.8        0     53.2     13.6 1101.700     1.09    16215   1882.1   119.47   230409 005453
2675.40     19.72    19.72      9.0        0     53.1     13.4 1101.700     1.09    16336   2003.0  -999.25   230409 005530
2675.60     20.58    20.58      9.2        2     52.8     13.2 2908.330     1.09    16298   1965.4  -999.25   230409 005605
2675.80     21.55    21.55      9.5        0     52.5     13.0 1541.150     1.09    16356   2023.3  -999.25   230409 005638
2676.00     21.54    21.54      9.7        0     52.2     12.8 1541.150     1.09    16598   2264.8  -999.25   230409 005712
2676.20     21.57    21.57      9.9        0     52.1     12.6 1541.150     1.09    16452   2119.2  -999.25   230409 005745
2676.40     21.61    21.61     10.1        0     51.9     12.4 1541.150     1.09    16409   2076.3  -999.25   230409 005819
2676.60     21.56    21.56     10.1        0     51.9     12.2 1541.150     1.09    16566   2232.7   122.19   230409 005853
2676.80     21.51    21.51     10.0        0     51.9     12.0 1541.150     1.09    16594   2260.7  -999.25   230409 005928
2677.00     21.39    21.39     10.1        0     51.9     11.8 1541.150     1.09    16445   2112.0  -999.25   230409 010001
2677.20     21.44    21.44     10.1        3     51.9     11.6 3129.930     1.09    16535   2202.5  -999.25   230409 010035
