#Pason DataHub                     Well Dossier No:    28622902
#LAS - Log ASCII Standard         Report Generated:    2023-08-31 16:32:34MDT
~VERSION INFORMATION
VERS.                                          2.0:    CWLS LOG ASCII STANDARD - VERSION 2.0
WRAP.                                           No:    ONE LINE PER DEPTH STEP
~WELL INFORMATION BLOCK
#MNEM.UNIT                                     DATA    DESCRIPTION OF MNEMONIC
#---------                                     ----    -----------------------
STRT.meters                                   0.20:    Start Depth
STOP.meters                                5700.00:    Stop Depth
STEP.meters                                   0.20:    Step Value
NULL.                                      -999.25:    NULL Value
COMP.                           Ovintiv Canada ULC:    Company
WELL.                 OVV HZ 105 WEMBLEY 15-4-73-9:    Well
FLD .                                      WEMBLEY:    Field
LOC .                               15-28-072-09W6:    Location
PROV.                                           AB:    Province
CTRY.                                       Canada:    Country
SRVC.             Precision Drilling, div of PDCLP:    Service Company
DATE.                                             :    Date
UWI .                        105/15-04-073-09W6/00:    Unique Well ID
RIG .                                Precision 535:    Rig
NUM .                                     28622902:    Well Dossier No
~CURVE INFORMATION
#MNEM.UNIT                                 API CODE    CURVE DESCRIPTION
#---------                                 --------    -----------------
DEPT .meters                                   001:      5  Hole Depth
ROP  .m/hr                                        :      3  Rate Of Penetration
OBR  .m/hr                                        :     14  On Bottom ROP
WOB  .kDaN                                        :     13  Weight on Bit
RPM  .RPM                                         :     11  Rotary RPM
HL   .kDaN                                        :      7  Hook Load
BHT  .meters                                      :     28  Block Height
TOR  .                                            :     12  Rotary Torque
TPO  .m3/min                                      :     26  Total Pump Output
SPP  .kPa                                         :      8  Standpipe Pressure
DIFP .kPa                                         :    123  Differential Pressure
GAM  .api                                         :     49  Gamma
DATE .yymmdd                                      :      0  YearMonthDay
TIME .hhmmss                                      :      0  HoursMinutesSeconds
# NOTE: Data generated with Omit Duplicate Depths enabled
~A DEPT       ROP      OBR      WOB      RPM       HL      BHT      TOR      TPO      SPP     DIFP      GAM   YYMMDD HHMMSS
# ...
1910.40     67.02    67.02     11.8       30     53.6      9.4 7396.720     1.09    21410   7317.6    96.15   230406 090507
1910.60     67.61    67.61     11.5       30     53.8      9.2 7438.040     1.09    21418   7326.0    96.15   230406 090517
1910.80     67.56    67.56     11.5       30     53.5      9.0 7069.950     1.09    21271   7178.7    96.15   230406 090529
1911.00     67.54    67.54     11.8       30     53.7      8.8 7032.390     1.09    21124   7031.1    96.15   230406 090541
1911.20     61.31    61.31     11.5       30     53.8      8.6 7160.100     1.09    21186   7093.8    96.15   230406 090553
1911.40     59.67    59.67     11.7       30     53.7      8.4 7197.650     1.09    21183   7090.9    96.15   230406 090605
1911.60     59.71    59.71     11.5       30     53.6      8.2 7201.410     1.09    21263   7170.3    96.15   230406 090617
1911.80     62.81    62.81     11.5       30     53.8      8.0 7362.920     1.09    21563   7470.9   107.43   230406 090628
1912.00     68.08    68.08     11.5       30     53.7      7.8 7577.010     1.09    21679   7586.7   107.43   230406 090638
1912.20     69.47    69.47     11.5       31     54.5      7.6 7599.540     1.09    21763   7670.4   107.43   230406 090648
1912.40     74.38    74.38     11.9       31     54.3      7.4 7096.240     1.09    21616   7524.0   107.43   230406 090657
1912.60     75.29    75.29     12.0       30     53.5      7.2 6979.810     1.09    21046   6953.8   107.43   230406 090711
1912.80     65.21    65.21     11.5       30     53.9      7.0 7430.530     1.09    21572   7479.4   107.43   230406 090723
1913.00     62.40    62.40     11.3       30     53.8      6.8 7220.190     1.09    21662   7570.0   100.30   230406 090733
1913.20     68.69    68.69     11.7       30     53.5      6.6 7501.890     1.09    21554   7461.2  -999.25   230406 090744
1913.40     68.37    68.37     11.3       30     53.9      6.4 7561.980     1.09    21678   7585.1  -999.25   230406 090754
1913.60     71.67    71.67     11.0       31     57.0      6.2 7242.730     1.09    21718   7625.4  -999.25   230406 090801
1913.80     85.12    85.12      9.9       30     56.9      6.0 6810.790     1.09    20016   5924.0  -999.25   230406 090809
1914.00     93.29    93.29     11.8       30     54.3      5.8 7719.740     1.09    21321   7228.9  -999.25   230406 090818
1914.20     92.72    92.72     11.9       30     53.5      5.6 7453.060     1.09    21446   7354.0  -999.25   230406 090830
1914.40     72.53    72.53     11.4       30     53.7      5.4 7599.540     1.09    21612   7519.1  -999.25   230406 090842
1914.60     63.45    63.45     11.8       30     53.6      5.2 7261.510     1.09    21610   7517.6   100.30   230406 090854
1914.80     63.45    63.45     11.6       30     53.6      5.0 6735.670     1.09    20936   6843.9   100.30   230406 090907
1915.00     56.15    56.15     11.5       30     53.7      4.8 7122.530     1.09    20731   6638.5   100.30   230406 090920
1915.20     56.03    56.03     11.5       30     53.8      4.6 7246.480     1.09    20889   6796.7    94.07   230406 090933
1915.40     57.97    57.97     11.6       30     54.0      4.4 7295.310     1.09    21185   7092.9    94.07   230406 090944
1915.60     62.30    62.30     11.5       30     53.8      4.2 7400.480     1.09    21227   7134.4    94.07   230406 090956
1915.80     64.41    64.41     11.5       30     53.9      4.0 7663.400     1.09    21500   7408.0    94.07   230406 091006
1916.00     66.58    66.58     11.7       30     53.4      3.8 6889.670     1.09    21238   7145.1    94.07   230406 091019
1916.20     65.92    65.92     11.7       30     53.7      3.6 6750.690     1.09    20767   6674.8    94.07   230406 091032
1916.40     54.53    54.53     11.6       31     54.0      3.4 7697.200     1.09    21377   7284.6    96.15   230406 091044
1916.60     62.15    62.15     11.6       31     54.0      3.2 6979.810     1.09    21336   7243.6    96.15   230406 091056
1916.80     62.79    62.79     11.6       31     54.0      3.0 7595.790     1.09    21328   7235.1    96.15   230406 091108
1917.00     59.66    59.66     11.6       31     54.2      2.8 7531.940     1.09    21298   7205.6    96.15   230406 091119
1917.20     64.21    64.21     11.9       30     53.7      2.6 6735.670     1.09    21315   7222.3    96.15   230406 091132
1917.40     63.92    63.92     11.7       31     53.9      2.4 7276.530     1.09    20915   6822.7    96.15   230406 091146
1917.60     55.24    55.24     11.6       30     53.7      2.2 7100.000     1.09    20983   6890.3  -999.25   230406 091159
1917.80     58.63    58.63     11.5       31     53.8      2.0 7516.910     1.09    21090   6997.8  -999.25   230406 091210
1918.00     59.64    59.64     11.5       30     53.8      1.8 7302.820     1.09    21139   7046.7  -999.25   230406 091223
1918.20     59.62    59.62     11.6       30     53.8      1.6 7670.910     1.09    21350   7257.2  -999.25   230406 091235
1918.40     59.37    59.37     11.9       30     53.9      1.4 6769.470     1.09    21469   7376.5  -999.25   230406 091248
1918.60     59.69    59.69     11.8       30     53.9      1.2 7546.960     1.09    21192   7099.2  -999.25   230406 091300
1918.80     61.52    61.52     11.5       30     53.7      1.0 7227.700     1.09    21270   7177.7  -999.25   230406 091312
1919.00     62.07    62.07     11.8       30     53.7      0.8 7242.730     1.09    20896   6803.6  -999.25   230406 091326
1919.20     54.65    54.65     11.5       30     53.9      0.6 6825.810     1.09    20925   6832.7  -999.25   230406 091339
1919.40     55.26    55.26     11.8       30     53.7      0.4 6780.740     1.09    20191   6098.9   102.68   230406 091354
1919.60     50.17    50.17     11.5       30     53.8      0.2 7152.580     1.09    20624   6531.1   102.68   230406 091408
1919.80     55.43    55.43     11.2       30     54.6      0.0 7081.220     1.09    21064   6971.5   102.68   230406 091417
1920.00     22.92    22.92      3.4       30     65.5     26.9 5195.720     1.09    14692    599.5   102.68   230406 091846
1920.20     56.86    56.86      6.1       30     60.5     26.7 6025.790     1.09    17702   3609.9   102.68   230406 091855
1920.40     80.03    80.03      6.8       30     58.4     26.5 6288.710     1.09    19036   4943.4   127.90   230406 091904
1920.60     80.15    80.15      7.4       30     57.8     26.3 6382.610     1.09    19320   5227.7   127.90   230406 091913
1920.80     78.82    78.82      8.5       30     57.2     26.1 6724.400     1.09    19816   5723.1   127.90   230406 091923
1921.00     78.25    78.25      9.1       30     56.2     25.9 7021.120     1.09    20371   6278.6   133.54   230406 091932
1921.20     78.22    78.22      9.7       30     55.6     25.7 7374.190     1.09    20659   6566.8   133.54   230406 091941
1921.40     78.30    78.30     10.0       30     55.1     25.5 7366.670     1.09    21110   7017.6   133.54   230406 091950
1921.60     78.21    78.21     11.2       30     54.6     25.3 7449.300     1.09    21053   6960.2   133.54   230406 092000
1921.80     76.36    76.36     11.5       30     53.8     25.1 7783.590     1.09    21910   7817.2   133.54   230406 092011
1922.00     70.09    70.09     11.5       30     53.8     24.9 7682.180     1.09    21927   7834.4   133.54   230406 092022
1922.20     67.52    67.52     11.6       30     53.6     24.7 7648.370     1.09    21650   7557.2   133.54   230406 092033
1922.40     66.86    66.86     11.5       30     53.6     24.5 7419.260     1.09    21648   7555.6    81.90   230406 092044
1922.60     64.61    64.61     11.6       30     53.7     24.3 7362.920     1.09    21465   7372.6    81.90   230406 092056
1922.80     61.85    61.85     11.5       30     53.7     24.1 7637.100     1.09    21490   7397.8    81.90   230406 092108
1923.00     62.27    62.27     11.5       30     53.7     23.9 7336.630     1.09    21603   7510.6    83.98   230406 092119
1923.20     63.13    63.13     11.5       30     53.7     23.7 7588.280     1.09    21832   7739.2    83.98   230406 092131
