#Pason DataHub                     Well Dossier No:    28622902
#LAS - Log ASCII Standard         Report Generated:    2023-08-31 16:32:34MDT
~VERSION INFORMATION
VERS.                                          2.0:    CWLS LOG ASCII STANDARD - VERSION 2.0
WRAP.                                           No:    ONE LINE PER DEPTH STEP
~WELL INFORMATION BLOCK
#MNEM.UNIT                                     DATA    DESCRIPTION OF MNEMONIC
#---------                                     ----    -----------------------
STRT.meters                                   0.20:    Start Depth
STOP.meters                                5700.00:    Stop Depth
STEP.meters                                   0.20:    Step Value
NULL.                                      -999.25:    NULL Value
COMP.                           Ovintiv Canada ULC:    Company
WELL.                 OVV HZ 105 WEMBLEY 15-4-73-9:    Well
FLD .                                      WEMBLEY:    Field
LOC .                               15-28-072-09W6:    Location
PROV.                                           AB:    Province
CTRY.                                       Canada:    Country
SRVC.             Precision Drilling, div of PDCLP:    Service Company
DATE.                                             :    Date
UWI .                        105/15-04-073-09W6/00:    Unique Well ID
RIG .                                Precision 535:    Rig
NUM .                                     28622902:    Well Dossier No
~CURVE INFORMATION
#MNEM.UNIT                                 API CODE    CURVE DESCRIPTION
#---------                                 --------    -----------------
DEPT .meters                                   001:      5  Hole Depth
ROP  .m/hr                                        :      3  Rate Of Penetration
OBR  .m/hr                                        :     14  On Bottom ROP
WOB  .kDaN                                        :     13  Weight on Bit
RPM  .RPM                                         :     11  Rotary RPM
HL   .kDaN                                        :      7  Hook Load
BHT  .meters                                      :     28  Block Height
TOR  .                                            :     12  Rotary Torque
TPO  .m3/min                                      :     26  Total Pump Output
SPP  .kPa                                         :      8  Standpipe Pressure
DIFP .kPa                                         :    123  Differential Pressure
GAM  .api                                         :     49  Gamma
DATE .yymmdd                                      :      0  YearMonthDay
TIME .hhmmss                                      :      0  HoursMinutesSeconds
# NOTE: Data generated with Omit Duplicate Depths enabled
~A DEPT       ROP      OBR      WOB      RPM       HL      BHT      TOR      TPO      SPP     DIFP      GAM   YYMMDD HHMMSS
# ...
766.40     147.50   147.50      9.4       40     37.5      9.0 4722.460     1.30    15340   5435.8  -999.25   230405 145129
766.60     147.59   147.59      9.5       40     37.4      8.8 4606.030     1.30    15256   5351.7  -999.25   230405 145133
766.80     148.31   148.31     10.1       40     37.1      8.6 4857.680     1.30    15320   5415.6  -999.25   230405 145138
767.00     149.96   149.96     10.4       40     36.3      8.4 4977.870     1.30    15616   5711.9  -999.25   230405 145143
767.20     152.49   152.49     10.5       40     36.3      8.2 5007.920     1.30    15708   5803.7   117.22   230405 145147
767.40     154.80   154.80     10.6       40     36.1      8.0 5206.980     1.30    15683   5778.8  -999.25   230405 145152
767.60     156.38   156.38     10.6       40     36.1      7.8 4951.580     1.30    15754   5849.5  -999.25   230405 145156
767.80     157.11   157.11     10.6       40     36.1      7.6 4955.330     1.30    15586   5682.1  -999.25   230405 145201
768.00     157.14   157.14     10.9       40     35.9      7.4 4981.630     1.30    15673   5768.4  -999.25   230405 145205
768.20     157.13   157.13     11.1       40     35.7      7.2 5000.410     1.30    15745   5840.2  -999.25   230405 145210
768.40     157.13   157.13     11.1       40     35.8      7.0 5143.130     1.30    15767   5862.9   117.22   230405 145215
768.60     157.02   157.02     11.0       40     35.9      6.8 5199.470     1.30    15741   5836.4  -999.25   230405 145219
768.80     157.02   157.02     11.1       40     35.7      6.6 5327.180     1.30    15821   5917.0  -999.25   230405 145224
769.00     157.06   157.06     10.7       40     36.1      6.4 4970.360     1.30    15906   6002.1  -999.25   230405 145228
769.20     157.12   157.12     10.6       40     36.0      6.2 5240.790     1.30    15840   5935.7  -999.25   230405 145233
769.40     157.18   157.18     10.8       40     36.1      6.0 5015.430     1.30    15644   5739.8  -999.25   230405 145237
769.60     157.19   157.19     10.5       40     36.2      5.8 4955.330     1.30    15791   5886.7  -999.25   230405 145242
769.80     157.06   157.06     10.7       40     36.1      5.6 4846.410     1.30    15674   5769.8   117.22   230405 145247
770.00     156.98   156.98     11.0       40     35.9      5.4 4940.310     1.30    15822   5917.4  -999.25   230405 145251
770.20     157.00   157.00     11.1       40     35.7      5.2 4996.650     1.30    15876   5971.8  -999.25   230405 145256
770.40     157.25   157.25     11.5       40     35.4      5.0 5071.770     1.30    15955   6050.2  -999.25   230405 145300
770.60     157.30   157.30     11.2       40     35.7      4.8 4876.460     1.30    16067   6162.6  -999.25   230405 145305
770.80     157.33   157.33     11.4       40     35.5      4.6 5184.450     1.30    16087   6182.8  -999.25   230405 145310
771.00     157.35   157.35     11.8       40     34.9      4.4 5128.110     1.30    16201   6296.8  -999.25   230405 145314
771.20     157.21   157.21     13.6       40     35.1      4.2 6442.700     1.30    16474   6569.9  -999.25   230405 145319
771.40     154.95   154.95     12.1       40     34.8      4.0 5094.310     1.30    16538   6633.4  -999.25   230405 145324
771.60     152.48   152.48     12.3       40     34.5      3.8 5188.210     1.30    16394   6489.2  -999.25   230405 145329
771.80     150.61   150.61     12.5       40     34.3      3.6 5146.890     1.30    16513   6608.8  -999.25   230405 145333
772.00     152.73   152.73     12.5       40     34.2      3.4 5218.250     1.30    16503   6598.3  -999.25   230405 145338
772.20     155.04   155.04     12.5       40     34.1      3.2 5345.960     1.30    16522   6617.4   117.22   230405 145342
772.40     156.48   156.48     12.6       40     34.2      3.0 5360.980     1.30    16569   6664.7  -999.25   230405 145347
772.60     156.92   156.92     12.4       40     35.4      2.8 5007.920     1.30    16478   6574.1  -999.25   230405 145351
772.80     157.24   157.24     11.2       40     35.6      2.6 5022.940     1.30    16284   6379.3  -999.25   230405 145356
773.00     157.55   157.55     11.3       40     35.5      2.4 5169.430     1.30    16036   6131.8  -999.25   230405 145401
773.20     157.60   157.60     11.2       40     35.7      2.2 5068.020     1.30    15894   5989.6  -999.25   230405 145405
773.40     157.62   157.62     11.0       40     35.7      2.0 4970.360     1.30    15857   5952.3  -999.25   230405 145410
773.60     157.76   157.76     10.9       40     35.7      1.8 4970.360     1.30    15859   5954.8   117.22   230405 145414
773.80     157.82   157.82     10.9       40     36.0      1.6 4891.480     1.30    15843   5938.3   117.22   230405 145419
774.00     157.91   157.91     10.6       40     36.1      1.4 4775.050     1.30    15768   5864.1   117.22   230405 145423
774.20     157.91   157.91     10.4       40     36.2      1.2 4842.650     1.30    15668   5763.6   117.22   230405 145428
774.40     157.77   157.77     10.8       40     36.1      1.0 5071.770     1.30    15627   5722.2   119.89   230405 145433
774.60    -999.25  -999.25  -999.25  -999.25  -999.25  -999.25  -999.25  -999.25  -999.25  -999.25  -999.25   230405 145433
774.80    -999.25  -999.25  -999.25  -999.25  -999.25  -999.25  -999.25  -999.25  -999.25  -999.25  -999.25   230405 145433
775.00    -999.25  -999.25  -999.25  -999.25  -999.25  -999.25  -999.25  -999.25  -999.25  -999.25  -999.25   230405 145433
775.20    -999.25  -999.25  -999.25  -999.25  -999.25  -999.25  -999.25  -999.25  -999.25  -999.25  -999.25   230405 145433
775.40    -999.25  -999.25  -999.25  -999.25  -999.25  -999.25  -999.25  -999.25  -999.25  -999.25  -999.25   230405 145433
775.60    -999.25  -999.25  -999.25  -999.25  -999.25  -999.25  -999.25  -999.25  -999.25  -999.25  -999.25   230405 145433
775.80    -999.25  -999.25  -999.25  -999.25  -999.25  -999.25  -999.25  -999.25  -999.25  -999.25  -999.25   230405 145433
776.00    -999.25  -999.25  -999.25  -999.25  -999.25  -999.25  -999.25  -999.25  -999.25  -999.25  -999.25   230405 145433
776.20    -999.25  -999.25  -999.25  -999.25  -999.25  -999.25  -999.25  -999.25  -999.25  -999.25  -999.25   230405 145433
776.40    -999.25  -999.25  -999.25  -999.25  -999.25  -999.25  -999.25  -999.25  -999.25  -999.25  -999.25   230405 145433
776.60      14.38    14.38      0.3       50     46.7     27.9 1706.410     1.30    10432    527.9   119.89   230405 150015
776.80      39.05    39.05      3.9       50     45.5     27.8 3265.150     1.30    12277   2372.2   119.89   230405 150025
777.00      67.64    67.64      3.9       50     43.1     27.6 3295.190     1.30    12848   2943.8   119.89   230405 150035
777.20      76.93    76.93      3.8       50     43.1     27.4 3351.530     1.30    12880   2975.9   119.89   230405 150044
777.40      78.10    78.10      3.7       51     43.1     27.2 3366.560     1.30    12786   2882.1   119.89   230405 150053
777.60      78.14    78.14      3.6       50     43.2     27.0 3250.120     1.30    12668   2763.5   119.89   230405 150102
777.80      78.06    78.06      3.7       50     43.1     26.8 3212.560     1.30    12673   2768.6  -999.25   230405 150112
778.00      78.04    78.04      3.7       50     43.1     26.6 3332.750     1.30    12766   2861.7  -999.25   230405 150121
778.20      78.16    78.16      3.6       50     43.2     26.4 3208.800     1.30    12660   2755.5  -999.25   230405 150130
778.40      78.04    78.04      3.7       51     43.1     26.2 3430.410     1.30    12739   2834.9  -999.25   230405 150139
778.60      78.04    78.04      3.6       50     43.1     26.0 3283.920     1.30    12703   2798.5  -999.25   230405 150149
778.80      77.91    77.91      3.8       50     43.1     25.8 3370.310     1.30    12698   2794.1  -999.25   230405 150158
779.00      77.67    77.67      3.7       50     43.2     25.6 3452.940     1.30    12721   2816.3  -999.25   230405 150207
779.20      77.57    77.57      3.6       51     43.3     25.4 3321.480     1.30    12684   2779.2  -999.25   230405 150216
