#Pason DataHub                     Well Dossier No:    28622902
#LAS - Log ASCII Standard         Report Generated:    2023-08-31 16:32:34MDT
~VERSION INFORMATION
VERS.                                          2.0:    CWLS LOG ASCII STANDARD - VERSION 2.0
WRAP.                                           No:    ONE LINE PER DEPTH STEP
~WELL INFORMATION BLOCK
#MNEM.UNIT                                     DATA    DESCRIPTION OF MNEMONIC
#---------                                     ----    -----------------------
STRT.meters                                   0.20:    Start Depth
STOP.meters                                5700.00:    Stop Depth
STEP.meters                                   0.20:    Step Value
NULL.                                      -999.25:    NULL Value
COMP.                           Ovintiv Canada ULC:    Company
WELL.                 OVV HZ 105 WEMBLEY 15-4-73-9:    Well
FLD .                                      WEMBLEY:    Field
LOC .                               15-28-072-09W6:    Location
PROV.                                           AB:    Province
CTRY.                                       Canada:    Country
SRVC.             Precision Drilling, div of PDCLP:    Service Company
DATE.                                             :    Date
UWI .                        105/15-04-073-09W6/00:    Unique Well ID
RIG .                                Precision 535:    Rig
NUM .                                     28622902:    Well Dossier No
~CURVE INFORMATION
#MNEM.UNIT                                 API CODE    CURVE DESCRIPTION
#---------                                 --------    -----------------
DEPT .meters                                   001:      5  Hole Depth
ROP  .m/hr                                        :      3  Rate Of Penetration
OBR  .m/hr                                        :     14  On Bottom ROP
WOB  .kDaN                                        :     13  Weight on Bit
RPM  .RPM                                         :     11  Rotary RPM
HL   .kDaN                                        :      7  Hook Load
BHT  .meters                                      :     28  Block Height
TOR  .                                            :     12  Rotary Torque
TPO  .m3/min                                      :     26  Total Pump Output
SPP  .kPa                                         :      8  Standpipe Pressure
DIFP .kPa                                         :    123  Differential Pressure
GAM  .api                                         :     49  Gamma
DATE .yymmdd                                      :      0  YearMonthDay
TIME .hhmmss                                      :      0  HoursMinutesSeconds
# NOTE: Data generated with Omit Duplicate Depths enabled
~A DEPT       ROP      OBR      WOB      RPM       HL      BHT      TOR      TPO      SPP     DIFP      GAM   YYMMDD HHMMSS
# ...
4181.00     24.50    24.50     15.9        0     57.9     24.1 2468.880     1.20    24356   2656.7   104.65   230410 220959
4181.20     26.02    26.02     16.9        0     56.6     23.9 2450.100     1.20    24528   2828.3  -999.25   230410 221028
4181.40     24.32    24.32     17.3        0     55.8     23.7 2446.340     1.20    24580   2880.2  -999.25   230410 221105
4181.60     19.66    19.66     17.3        6     55.7     23.5 5327.180     1.20    24595   2895.7  -999.25   230410 221143
4181.80     18.81    18.81     17.1        0     55.9     23.3 1965.580     1.20    24710   3010.9  -999.25   230410 221226
4182.00     18.28    18.28     16.9        0     56.4     23.1 1943.040     1.20    24706   3005.9  -999.25   230410 221304
4182.20     23.93    23.93     17.7        0     55.7     22.9 1950.550     1.20    24562   2862.6   107.07   230410 221334
4182.40     24.03    24.03     18.2        0     54.9     22.7 1950.550     1.20    24613   2913.4  -999.25   230410 221406
4182.60     24.34    24.34     19.2        6     54.6     22.5 2386.250     1.20    24695   2995.1  -999.25   230410 221436
4182.80     24.35    24.35     19.6        0     53.7     22.3  925.170     1.20    24732   3032.6  -999.25   230410 221506
4183.00     24.27    24.27     20.0        0     53.2     22.1  925.170     1.20    24715   3015.6  -999.25   230410 221536
4183.20     17.45    17.45      9.1       55     63.8     21.9 11336.700     1.20    26601   4901.5  -999.25   230410 221720
4183.40     49.44    49.44      9.6       55     63.6     21.7 11697.300     1.20    26938   5238.8  -999.25   230410 221730
4183.60     68.71    68.71     10.1       55     63.2     21.5 12084.200     1.20    27307   5607.4  -999.25   230410 221741
4183.80     68.71    68.71     10.2       55     62.6     21.3 12099.200     1.20    27369   5669.3  -999.25   230410 221751
4184.00     68.85    68.85     10.5       55     62.5     21.1 12084.200     1.20    27458   5758.3  -999.25   230410 221801
4184.20     72.44    72.44     11.2       55     62.1     20.9 12264.500     1.20    27564   5864.1  -999.25   230410 221809
4184.40     83.08    83.08     12.0       55     61.3     20.7 12910.500     1.20    27748   6048.2  -999.25   230410 221817
4184.60     91.11    91.11     12.6       55     60.6     20.5 13327.400     1.20    27990   6290.3   107.07   230410 221825
4184.80     91.31    91.31     12.8       55     60.4     20.3 13470.100     1.20    28367   6667.1  -999.25   230410 221834
4185.00     88.71    88.71     12.8       55     60.3     20.1 13627.900     1.20    28545   6845.1  -999.25   230410 221843
4185.20     84.96    84.96     12.7       55     60.3     19.9 13537.700     1.20    28662   6962.4  -999.25   230410 221851
4185.40     82.36    82.36     12.5       55     60.3     19.7 13440.100     1.20    28702   7002.2  -999.25   230410 221900
4185.60     81.38    81.38     12.6       55     60.3     19.5 13368.700     1.20    28592   6892.3  -999.25   230410 221909
4185.80     82.47    82.47     12.6       55     60.2     19.3 13496.400     1.20    28609   6909.0  -999.25   230410 221918
4186.00     82.76    82.76     12.8       55     60.3     19.1 13395.000     1.20    28577   6877.1  1889.45   230410 221926
4186.20     82.24    82.24     12.8       55     60.3     18.9 13319.900     1.20    28563   6863.2  -999.25   230410 221935
4186.40     81.11    81.11     12.8       55     60.2     18.7 13297.400     1.20    28469   6769.4  -999.25   230410 221944
4186.60     80.42    80.42     12.8       55     60.2     18.5 13387.500     1.20    28500   6800.4  -999.25   230410 221954
4186.80     79.66    79.66     12.7       55     60.2     18.3 13319.900     1.20    28449   6749.4  -999.25   230410 222003
4187.00     79.69    79.69     12.6       55     60.3     18.1 13207.200     1.20    28473   6773.3  -999.25   230410 222012
4187.20     79.03    79.03     12.7       55     60.2     17.9 13274.800     1.20    28436   6736.4  1889.45   230410 222021
4187.40     79.24    79.24     12.6       55     60.3     17.7 13342.400     1.20    28396   6696.4  -999.25   230410 222030
4187.60     80.25    80.25     12.8       55     60.1     17.5 13365.000     1.20    28482   6783.0  -999.25   230410 222039
4187.80     80.23    80.23     12.8       55     60.2     17.3 13361.200     1.20    28414   6714.7  -999.25   230410 222048
4188.00     79.69    79.69     12.8       55     60.3     17.1 13252.300     1.20    28422   6722.9  -999.25   230410 222057
4188.20     80.57    80.57     12.8       55     60.1     16.9 13372.500     1.20    28357   6657.4  -999.25   230410 222106
4188.40     80.50    80.50     12.8       55     60.2     16.7 13289.900     1.20    28378   6677.9  -999.25   230410 222115
4188.60     79.74    79.74     12.8       55     60.1     16.5 13289.900     1.20    28358   6658.4  -999.25   230410 222125
4188.80     78.87    78.87     12.7       55     60.1     16.3 13199.700     1.20    28411   6711.9  -999.25   230410 222134
4189.00     78.06    78.06     12.7       55     60.3     16.1 13259.800     1.20    28439   6739.2  -999.25   230410 222143
4189.20     78.38    78.38     12.8       55     60.1     15.9 13188.400     1.20    28385   6685.7  -999.25   230410 222152
4189.40     78.40    78.40     12.8       55     60.1     15.7 13015.700     1.20    28364   6664.2  -999.25   230410 222201
4189.60     77.87    77.87     12.8       55     60.1     15.5 13042.000     1.20    28297   6597.1  -999.25   230410 222211
4189.80     76.77    76.77     12.7       55     60.1     15.3 13060.700     1.20    28269   6569.2  -999.25   230410 222220
4190.00     76.98    76.98     12.9       55     60.1     15.1 12985.600     1.20    28265   6565.7  -999.25   230410 222230
4190.20     77.52    77.52     12.9       55     60.0     14.9 13049.500     1.20    28238   6538.8  -999.25   230410 222239
4190.40     77.32    77.32     12.8       55     60.1     14.7 13004.400     1.20    28268   6569.0  -999.25   230410 222248
4190.60     76.91    76.91     12.8       55     60.1     14.5 12854.200     1.20    28287   6587.3  -999.25   230410 222258
4190.80     77.12    77.12     12.9       55     60.1     14.3 12925.500     1.20    28234   6534.8  -999.25   230410 222307
4191.00     76.42    76.42     12.9       55     60.1     14.1 13053.200     1.20    28195   6495.4  -999.25   230410 222317
4191.20     76.84    76.84     12.8       55     60.1     13.9 12940.500     1.20    28142   6442.4  -999.25   230410 222326
4191.40     76.93    76.93     12.9       55     60.1     13.7 13000.600     1.20    28171   6471.5  -999.25   230410 222336
4191.60     76.06    76.06     12.9       55     60.0     13.5 12899.200     1.20    28173   6473.1   111.91   230410 222346
4191.80     74.84    74.84     12.9       55     60.0     13.3 12809.100     1.20    28109   6409.2  -999.25   230410 222355
4192.00     75.32    75.32     12.8       55     60.0     13.1 12696.400     1.20    28056   6355.9  -999.25   230410 222405
4192.20     75.72    75.72     12.8       55     60.1     12.9 12824.100     1.20    28083   6383.0  -999.25   230410 222414
4192.40     75.67    75.67     13.1       55     59.9     12.7 12869.200     1.20    28083   6383.6  -999.25   230410 222424
4192.60     74.96    74.96     13.0       55     60.1     12.5 12861.700     1.20    28097   6397.5  -999.25   230410 222434
4192.80     73.19    73.19     13.0       55     60.1     12.3 12812.800     1.20    28044   6344.3  -999.25   230410 222444
4193.00     73.49    73.49     12.9       55     60.0     12.1 12948.100     1.20    27927   6227.3  -999.25   230410 222453
4193.20     74.08    74.08     13.0       55     60.0     11.9 12970.600     1.20    27941   6241.8  -999.25   230410 222503
4193.40     74.10    74.10     13.0       55     60.0     11.7 12846.600     1.20    28009   6309.7  -999.25   230410 222513
4193.60     73.49    73.49     12.9       55     60.1     11.5 12850.400     1.20    27999   6299.5  -999.25   230410 222523
4193.80     73.73    73.73     13.1       55     59.9     11.3 12899.200     1.20    28061   6361.0  -999.25   230410 222532
