#Pason DataHub                     Well Dossier No:    28622902
#LAS - Log ASCII Standard         Report Generated:    2023-08-31 16:32:34MDT
~VERSION INFORMATION
VERS.                                          2.0:    CWLS LOG ASCII STANDARD - VERSION 2.0
WRAP.                                           No:    ONE LINE PER DEPTH STEP
~WELL INFORMATION BLOCK
#MNEM.UNIT                                     DATA    DESCRIPTION OF MNEMONIC
#---------                                     ----    -----------------------
STRT.meters                                   0.20:    Start Depth
STOP.meters                                5700.00:    Stop Depth
STEP.meters                                   0.20:    Step Value
NULL.                                      -999.25:    NULL Value
COMP.                           Ovintiv Canada ULC:    Company
WELL.                 OVV HZ 105 WEMBLEY 15-4-73-9:    Well
FLD .                                      WEMBLEY:    Field
LOC .                               15-28-072-09W6:    Location
PROV.                                           AB:    Province
CTRY.                                       Canada:    Country
SRVC.             Precision Drilling, div of PDCLP:    Service Company
DATE.                                             :    Date
UWI .                        105/15-04-073-09W6/00:    Unique Well ID
RIG .                                Precision 535:    Rig
NUM .                                     28622902:    Well Dossier No
~CURVE INFORMATION
#MNEM.UNIT                                 API CODE    CURVE DESCRIPTION
#---------                                 --------    -----------------
DEPT .meters                                   001:      5  Hole Depth
ROP  .m/hr                                        :      3  Rate Of Penetration
OBR  .m/hr                                        :     14  On Bottom ROP
WOB  .kDaN                                        :     13  Weight on Bit
RPM  .RPM                                         :     11  Rotary RPM
HL   .kDaN                                        :      7  Hook Load
BHT  .meters                                      :     28  Block Height
TOR  .                                            :     12  Rotary Torque
TPO  .m3/min                                      :     26  Total Pump Output
SPP  .kPa                                         :      8  Standpipe Pressure
DIFP .kPa                                         :    123  Differential Pressure
GAM  .api                                         :     49  Gamma
DATE .yymmdd                                      :      0  YearMonthDay
TIME .hhmmss                                      :      0  HoursMinutesSeconds
# NOTE: Data generated with Omit Duplicate Depths enabled
~A DEPT       ROP      OBR      WOB      RPM       HL      BHT      TOR      TPO      SPP     DIFP      GAM   YYMMDD HHMMSS
# ...
3054.40     23.45    23.45      8.8        0     52.2     17.1 1774.020     1.20    20215   2090.3   119.47   230409 182407
3054.60     19.83    19.83      8.4        0     52.3     16.9 1774.020     1.20    20001   1875.8   119.47   230409 182443
3054.80     19.82    19.82      8.3        0     52.5     16.7 1774.020     1.19    19927   1802.3   119.47   230409 182520
3055.00      6.73     6.73      5.0       50     55.6     16.3 6754.450     1.19    19300   1175.2   114.33   230409 182654
3055.20     28.29    28.29      7.2       50     55.2     16.3 7885.000     1.19    20679   2553.7   114.33   230409 182701
3055.40     59.72    59.72      8.4       50     53.2     16.1 8470.930     1.19    22070   3944.6   114.33   230409 182709
3055.60     91.31    91.31      9.2       50     51.9     15.9 8839.020     1.19    23044   4919.6   114.33   230409 182716
3055.80     98.02    98.02      9.6       50     51.1     15.7 9030.570     1.19    23741   5615.7   111.91   230409 182723
3056.00     98.04    98.04     10.0       50     50.6     15.5 9041.840     1.19    24215   6089.6   116.75   230409 182731
3056.20     98.05    98.05     10.1       50     50.4     15.3 9188.320     1.19    24298   6172.6   116.75   230409 182738
3056.40     98.16    98.16     10.3       50     50.4     15.1 9278.470     1.19    24438   6313.1   116.75   230409 182745
3056.60     98.67    98.67     10.6       50     50.2     14.9 9485.040     1.19    24510   6385.3   119.47   230409 182752
3056.80    100.14   100.14     10.6       50     49.9     14.7 9560.170     1.19    24724   6598.7   119.47   230409 182759
3057.00    101.91   101.91     10.8       50     49.8     14.5 9582.700     1.19    24845   6719.9   119.47   230409 182806
3057.20    102.88   102.88     10.8       50     49.7     14.3 9605.240     1.19    24859   6734.1   119.47   230409 182813
3057.40    103.00   103.00     10.8       50     49.8     14.1 9639.040     1.19    24911   6786.5   114.33   230409 182820
3057.60    103.02   103.02     10.9       50     49.7     13.9 9578.940     1.19    24967   6842.1   114.33   230409 182827
3057.80    103.05   103.05     11.1       50     49.6     13.7 9556.410     1.19    24951   6825.7   114.33   230409 182834
3058.00    103.05   103.05     11.1       50     49.5     13.5 9627.770     1.19    25023   6898.1   114.33   230409 182841
3058.20    102.95   102.95     11.0       50     49.5     13.3 9563.920     1.19    25040   6915.0   114.33   230409 182848
3058.40    102.94   102.94     11.1       50     49.5     13.1 9597.730     1.19    24950   6824.7   116.75   230409 182855
3058.60    103.00   103.00     11.2       50     49.4     12.9 9571.430     1.19    25000   6875.5   116.75   230409 182902
3058.80    103.00   103.00     11.3       50     49.3     12.7 9642.800     1.19    25006   6880.6   116.75   230409 182909
3059.00    102.98   102.98     11.5       50     49.2     12.5 9646.550     1.19    25001   6876.3   114.33   230409 182916
3059.20    102.78   102.78     11.6       50     49.0     12.3 9642.800     1.19    24814   6688.7   111.91   230409 182923
3059.40    102.65   102.65     11.6       50     48.9     12.1 9747.960     1.19    24867   6742.4   116.75   230409 182930
3059.60    102.68   102.68     11.8       50     48.7     11.9 9819.330     1.19    24867   6742.2   116.75   230409 182937
3059.80    102.58   102.58     11.9       50     48.7     11.7 9868.160     1.19    24988   6863.1   116.75   230409 182944
3060.00    102.10   102.10     11.9       50     48.6     11.5 9804.300     1.19    25019   6894.2   111.91   230409 182951
3060.20    101.61   101.61     12.1       50     48.5     11.3 9789.280     1.19    24949   6823.8   111.91   230409 182959
3060.40    101.17   101.17     12.1       50     48.6     11.1 9717.920     1.19    24937   6812.5    23.59   230409 183006
3060.60    100.45   100.45     12.1       50     48.5     10.9 9699.140     1.19    24897   6772.5    23.59   230409 183013
3060.80     99.88    99.88     12.2       50     48.5     10.7 9695.380     1.19    24855   6729.9    23.59   230409 183021
3061.00     99.24    99.24     12.2       50     48.4     10.5 9657.820     1.19    24886   6761.4    23.59   230409 183028
3061.20     97.52    97.52     12.1       50     48.4     10.3 9639.040     1.19    24695   6570.1    23.59   230409 183036
3061.40     95.72    95.72     12.2       50     48.5     10.1 9635.280     1.19    24755   6630.2   109.49   230409 183043
3061.60     95.11    95.11     12.1       50     48.5      9.9 9586.460     1.19    24692   6567.5  -999.25   230409 183051
3061.80     95.30    95.30     12.2       50     48.5      9.7 9593.970     1.19    24681   6556.2  -999.25   230409 183059
3062.00     95.28    95.28     12.3       50     48.5      9.5 9500.070     1.19    24703   6578.3  -999.25   230409 183107
3062.20     94.42    94.42     12.1       50     48.5      9.3 9394.900     1.19    24656   6531.3  -999.25   230409 183115
3062.40     91.96    91.96     12.1       50     48.5      9.1 9312.270     1.19    24563   6438.5   109.49   230409 183122
3062.60     91.81    91.81     12.1       50     48.5      8.9 9346.080     1.19    24582   6457.5   109.49   230409 183130
3062.80     92.60    92.60     12.2       50     48.4      8.7 9387.390     1.19    24452   6327.1   109.49   230409 183138
3063.00     92.60    92.60     12.3       50     48.5      8.5 9334.810     1.19    24513   6388.4   111.91   230409 183146
3063.20     91.69    91.69     12.2       50     48.5      8.3 9270.950     1.19    24521   6396.3  -999.25   230409 183154
3063.40     91.42    91.42     12.3       50     48.4      8.1 9274.710     1.19    24495   6370.2  -999.25   230409 183202
3063.60     92.01    92.01     12.1       50     48.4      7.9 9252.180     1.19    24483   6358.3  -999.25   230409 183209
3063.80     93.02    93.02     12.3       50     48.3      7.7 9323.540     1.19    24426   6300.6  -999.25   230409 183217
3064.00     93.11    93.11     12.3       50     48.4      7.5 9353.590     1.19    24510   6385.0  -999.25   230409 183225
3064.20     92.55    92.55     12.2       50     48.5      7.3 9222.130     1.19    24555   6429.7  -999.25   230409 183233
3064.40     90.75    90.75     12.2       50     48.4      7.1 9263.440     1.19    24376   6251.5   111.91   230409 183241
3064.60     91.63    91.63     12.3       50     48.4      6.9 9353.590     1.19    24371   6245.7   111.91   230409 183249
3064.80     92.00    92.00     12.2       50     48.4      6.7 9391.150     1.19    24431   6306.4   111.91   230409 183257
3065.00     92.00    92.00     12.2       50     48.3      6.5 9432.460     1.19    24522   6397.4   111.91   230409 183304
3065.20     91.74    91.74     12.2       50     48.3      6.3 9473.780     1.19    24483   6358.1   111.91   230409 183313
3065.40     91.14    91.14     12.2       50     48.4      6.1 9402.410     1.19    24381   6256.2   107.07   230409 183320
3065.60     90.63    90.63     12.1       51     50.4      5.9 9500.070     1.19    24377   6251.8  -999.25   230409 183333
3065.80     76.30    76.30     11.3       50     49.8      5.7 8910.380     1.19    23965   5839.7  -999.25   230409 183340
3066.00     82.56    82.56     11.9       50     48.9      5.5 9342.320     1.19    23823   5698.1  -999.25   230409 183347
3066.20     97.49    97.49     12.2       50     48.5      5.3 9533.870     1.19    24187   6062.0  -999.25   230409 183355
3066.40     98.54    98.54     12.3       50     48.3      5.1 9729.180     1.19    24628   6503.0  -999.25   230409 183403
3066.60     95.99    95.99     12.4       50     48.3      4.9 9672.840     1.19    24637   6511.7   107.07   230409 183410
3066.80     93.25    93.25     12.3       50     48.2      4.7 9575.190     1.19    24677   6552.3  -999.25   230409 183418
3067.00     14.14    14.14      4.9       50     56.7     33.1 6645.530     1.19    20144   2019.0  -999.25   230409 184825
3067.20     43.05    43.05      6.1       50     55.4     33.0 7347.890     1.19    21408   3283.5  -999.25   230409 184836
