#Pason DataHub                     Well Dossier No:    28622902
#LAS - Log ASCII Standard         Report Generated:    2023-08-31 16:32:34MDT
~VERSION INFORMATION
VERS.                                          2.0:    CWLS LOG ASCII STANDARD - VERSION 2.0
WRAP.                                           No:    ONE LINE PER DEPTH STEP
~WELL INFORMATION BLOCK
#MNEM.UNIT                                     DATA    DESCRIPTION OF MNEMONIC
#---------                                     ----    -----------------------
STRT.meters                                   0.20:    Start Depth
STOP.meters                                5700.00:    Stop Depth
STEP.meters                                   0.20:    Step Value
NULL.                                      -999.25:    NULL Value
COMP.                           Ovintiv Canada ULC:    Company
WELL.                 OVV HZ 105 WEMBLEY 15-4-73-9:    Well
FLD .                                      WEMBLEY:    Field
LOC .                               15-28-072-09W6:    Location
PROV.                                           AB:    Province
CTRY.                                       Canada:    Country
SRVC.             Precision Drilling, div of PDCLP:    Service Company
DATE.                                             :    Date
UWI .                        105/15-04-073-09W6/00:    Unique Well ID
RIG .                                Precision 535:    Rig
NUM .                                     28622902:    Well Dossier No
~CURVE INFORMATION
#MNEM.UNIT                                 API CODE    CURVE DESCRIPTION
#---------                                 --------    -----------------
DEPT .meters                                   001:      5  Hole Depth
ROP  .m/hr                                        :      3  Rate Of Penetration
OBR  .m/hr                                        :     14  On Bottom ROP
WOB  .kDaN                                        :     13  Weight on Bit
RPM  .RPM                                         :     11  Rotary RPM
HL   .kDaN                                        :      7  Hook Load
BHT  .meters                                      :     28  Block Height
TOR  .                                            :     12  Rotary Torque
TPO  .m3/min                                      :     26  Total Pump Output
SPP  .kPa                                         :      8  Standpipe Pressure
DIFP .kPa                                         :    123  Differential Pressure
GAM  .api                                         :     49  Gamma
DATE .yymmdd                                      :      0  YearMonthDay
TIME .hhmmss                                      :      0  HoursMinutesSeconds
# NOTE: Data generated with Omit Duplicate Depths enabled
~A DEPT       ROP      OBR      WOB      RPM       HL      BHT      TOR      TPO      SPP     DIFP      GAM   YYMMDD HHMMSS
# ...
5315.00     75.08    75.08     14.0       55     57.6      6.5 15310.600     1.19    31017   6853.0  -999.25   230412 014129
5315.20     74.76    74.76     14.0       55     57.6      6.3 15314.300     1.19    30992   6827.1  -999.25   230412 014138
5315.40     73.59    73.59     13.9       55     57.6      6.1 15438.300     1.19    31047   6882.9  -999.25   230412 014148
5315.60     75.11    75.11     14.0       55     57.6      5.9 15397.000     1.19    31017   6852.9   127.64   230412 014158
5315.80     75.26    75.26     14.1       55     57.6      5.7 15325.600     1.19    31040   6875.6  -999.25   230412 014207
5316.00     74.82    74.82     13.9       55     57.6      5.5 15265.500     1.19    31042   6877.4  -999.25   230412 014217
5316.20     74.13    74.13     14.0       55     57.6      5.3 15310.600     1.19    31062   6898.1  -999.25   230412 014227
5316.40     74.20    74.20     14.0       55     57.5      5.0 15273.000     1.19    31143   6978.4  -999.25   230412 014236
5316.60     74.42    74.42     13.9       55     57.5      4.9 15351.900     1.19    31078   6913.6  -999.25   230412 014246
5316.80     75.56    75.56     14.0       55     57.5      4.7 15434.500     1.19    31028   6863.5   127.64   230412 014255
5317.00     75.66    75.66     14.1       55     57.6      4.5 15423.200     1.19    31016   6851.4   127.64   230412 014305
5317.20     75.18    75.18     14.0       55     57.4      4.2 15400.700     1.19    31046   6881.4   127.64   230412 014315
5317.40     74.35    74.35     14.1       55     57.5      4.1 15438.300     1.19    31042   6877.1   127.64   230412 014325
5317.60     74.53    74.53     14.1       55     57.5      3.9 15449.500     1.19    31062   6897.7  -999.25   230412 014334
5317.80     74.89    74.89     14.0       56     57.5      3.7 15599.800     1.19    31137   6972.3  -999.25   230412 014344
5318.00     75.63    75.63     14.0       55     57.4      3.4 15276.800     1.19    31105   6940.7  -999.25   230412 014353
5318.20     75.75    75.75     14.1       55     57.4      3.3 15273.000     1.19    31043   6878.9  -999.25   230412 014403
5318.40     74.25    74.25     14.0       55     57.6      3.1 15562.200     1.19    31067   6902.4  -999.25   230412 014413
5318.60     73.44    73.44     14.1       56     57.5      2.9 15581.000     1.19    31011   6846.5  -999.25   230412 014423
5318.80     75.53    75.53     14.1       55     57.5      2.7 15231.700     1.19    31061   6896.9   127.64   230412 014432
5319.00     75.60    75.60     14.2       55     57.5      2.5 15385.700     1.19    31122   6958.2  -999.25   230412 014443
5319.20     74.13    74.13     14.2       55     57.4      2.3 15306.800     1.19    31068   6904.2  -999.25   230412 014454
5319.40     17.02    17.02      6.8       55     65.5     29.0 11764.900     1.19    27173   3008.9  -999.25   230412 015059
5319.60     48.17    48.17      7.6       55     64.4     28.9 12373.400     1.19    27720   3555.3  -999.25   230412 015112
5319.80     58.63    58.63      8.6       55     63.4     28.7 12564.900     1.19    28265   4100.6  -999.25   230412 015124
5320.00     58.66    58.66      9.1       55     62.8     28.5 12820.400     1.19    28684   4519.6  -999.25   230412 015136
5320.20     58.70    58.70      9.7       55     62.4     28.3 13165.900     1.19    28981   4816.5   127.64   230412 015149
5320.40     58.71    58.71     10.0       55     61.9     28.1 13496.400     1.19    29158   4993.5  -999.25   230412 015201
5320.60     58.67    58.67     10.1       55     61.6     27.9 13496.400     1.19    29367   5203.1  -999.25   230412 015213
5320.80     58.73    58.73     10.2       55     61.5     27.7 13507.700     1.19    29528   5364.0  -999.25   230412 015225
5321.00     58.71    58.71     10.4       56     61.3     27.5 13718.000     1.19    29639   5474.7  -999.25   230412 015238
5321.20     58.71    58.71     10.4       55     61.2     27.3 13736.800     1.19    29805   5640.9  -999.25   230412 015250
5321.40     58.85    58.85     10.6       55     61.2     27.1 13650.400     1.19    29840   5675.2  -999.25   230412 015302
5321.60     58.85    58.85     10.5       55     61.0     26.9 13793.200     1.19    29821   5656.5   127.64   230412 015314
5321.80     58.78    58.78     10.5       55     61.1     26.7 13703.000     1.19    29943   5778.7   127.64   230412 015327
5322.00     58.76    58.76     10.6       55     60.9     26.5 13796.900     1.19    29827   5662.4   127.64   230412 015339
5322.20     58.74    58.74     10.6       55     60.8     26.3 13725.500     1.19    29881   5716.9   130.36   230412 015351
5322.40     58.73    58.73     10.7       55     60.8     26.1 13804.400     1.19    29814   5650.1  -999.25   230412 015403
5322.60     58.83    58.83     10.8       55     61.0     25.9 13830.700     1.19    29872   5707.8  -999.25   230412 015415
5322.80     63.44    63.44     11.5       55     60.5     25.7 13763.100     1.19    29922   5757.8  -999.25   230412 015424
5323.00     75.02    75.02     12.2       55     59.5     25.5 14322.700     1.19    29939   5774.4  -999.25   230412 015433
5323.20     81.78    81.78     12.8       55     58.9     25.3 14581.900     1.19    30154   5989.7  -999.25   230412 015442
5323.40     82.00    82.00     13.2       55     58.4     25.1 14769.700     1.19    30337   6172.9  -999.25   230412 015451
5323.60     80.55    80.55     13.3       55     58.3     24.9 15134.000     1.19    30522   6358.1  -999.25   230412 015501
5323.80     76.74    76.74     13.4       55     58.3     24.7 15227.900     1.19    30656   6491.1   130.36   230412 015511
5324.00     73.98    73.98     13.3       55     58.3     24.5 15224.200     1.19    30836   6671.6   130.36   230412 015521
5324.20     72.53    72.53     13.3       55     58.3     24.3 15194.100     1.19    30809   6644.8   130.36   230412 015531
5324.40     71.48    71.48     13.3       55     58.4     24.1 15303.100     1.19    30773   6609.1   130.36   230412 015541
5324.60     71.64    71.64     13.2       55     58.2     23.9 15280.500     1.19    30887   6722.9  -999.25   230412 015551
5324.80     71.20    71.20     13.2       55     58.4     23.7 15246.700     1.19    30897   6732.5  -999.25   230412 015601
5325.00     73.49    73.49     13.3       55     58.4     23.5 15246.700     1.19    30853   6688.7  -999.25   230412 015611
5325.20     74.40    74.40     13.3       55     58.1     23.3 15412.000     1.19    30843   6678.7  -999.25   230412 015621
5325.40     74.07    74.07     13.3       55     58.4     23.1 15243.000     1.19    31010   6845.9  -999.25   230412 015631
5325.60     71.72    71.72     13.3       55     58.3     22.9 15224.200     1.19    30925   6760.4  -999.25   230412 015641
5325.80     72.33    72.33     13.4       55     58.3     22.7 15397.000     1.19    30969   6804.7   130.36   230412 015651
5326.00     72.58    72.58     13.3       55     58.3     22.5 15449.500     1.19    30967   6802.4  -999.25   230412 015700
5326.20     73.29    73.29     13.3       55     58.1     22.3 15303.100     1.19    30966   6801.7  -999.25   230412 015710
5326.40     73.42    73.42     13.3       55     58.1     22.1 15149.100     1.19    30901   6736.4  -999.25   230412 015720
5326.60     73.19    73.19     13.5       55     58.2     21.9 15190.400     1.19    30944   6779.5  -999.25   230412 015730
5326.80     71.96    71.96     13.3       55     58.2     21.7 15137.800     1.19    30936   6771.8  -999.25   230412 015740
5327.00     72.38    72.38     13.3       55     58.2     21.5 15333.100     1.19    30944   6779.3  -999.25   230412 015750
5327.20     72.85    72.85     13.5       55     58.2     21.3 15336.900     1.19    30953   6788.6   130.36   230412 015800
5327.40     72.90    72.90     13.4       55     58.2     21.1 15269.300     1.19    30967   6802.8  -999.25   230412 015810
5327.60     72.58    72.58     13.4       55     58.1     20.9 15152.800     1.19    30989   6824.9  -999.25   230412 015820
