#Pason DataHub                     Well Dossier No:    28622902
#LAS - Log ASCII Standard         Report Generated:    2023-08-31 16:32:34MDT
~VERSION INFORMATION
VERS.                                          2.0:    CWLS LOG ASCII STANDARD - VERSION 2.0
WRAP.                                           No:    ONE LINE PER DEPTH STEP
~WELL INFORMATION BLOCK
#MNEM.UNIT                                     DATA    DESCRIPTION OF MNEMONIC
#---------                                     ----    -----------------------
STRT.meters                                   0.20:    Start Depth
STOP.meters                                5700.00:    Stop Depth
STEP.meters                                   0.20:    Step Value
NULL.                                      -999.25:    NULL Value
COMP.                           Ovintiv Canada ULC:    Company
WELL.                 OVV HZ 105 WEMBLEY 15-4-73-9:    Well
FLD .                                      WEMBLEY:    Field
LOC .                               15-28-072-09W6:    Location
PROV.                                           AB:    Province
CTRY.                                       Canada:    Country
SRVC.             Precision Drilling, div of PDCLP:    Service Company
DATE.                                             :    Date
UWI .                        105/15-04-073-09W6/00:    Unique Well ID
RIG .                                Precision 535:    Rig
NUM .                                     28622902:    Well Dossier No
~CURVE INFORMATION
#MNEM.UNIT                                 API CODE    CURVE DESCRIPTION
#---------                                 --------    -----------------
DEPT .meters                                   001:      5  Hole Depth
ROP  .m/hr                                        :      3  Rate Of Penetration
OBR  .m/hr                                        :     14  On Bottom ROP
WOB  .kDaN                                        :     13  Weight on Bit
RPM  .RPM                                         :     11  Rotary RPM
HL   .kDaN                                        :      7  Hook Load
BHT  .meters                                      :     28  Block Height
TOR  .                                            :     12  Rotary Torque
TPO  .m3/min                                      :     26  Total Pump Output
SPP  .kPa                                         :      8  Standpipe Pressure
DIFP .kPa                                         :    123  Differential Pressure
GAM  .api                                         :     49  Gamma
DATE .yymmdd                                      :      0  YearMonthDay
TIME .hhmmss                                      :      0  HoursMinutesSeconds
# NOTE: Data generated with Omit Duplicate Depths enabled
~A DEPT       ROP      OBR      WOB      RPM       HL      BHT      TOR      TPO      SPP     DIFP      GAM   YYMMDD HHMMSS
# ...
5687.60     58.85    58.85     14.2       55     57.6     14.2 14976.300     1.20    30233   4584.3  -999.25   230412 111529
5687.80     60.23    60.23     14.2       55     57.4     14.0 15058.900     1.20    30270   4621.9  -999.25   230412 111541
5688.00     60.20    60.20     14.3       55     57.5     13.8 15227.900     1.20    30368   4720.2  -999.25   230412 111554
5688.20     57.90    57.90     14.2       55     57.5     13.6 15269.300     1.20    30261   4612.4  -999.25   230412 111606
5688.40     58.56    58.56     14.3       55     57.5     13.4 15100.200     1.20    30275   4627.0  -999.25   230412 111619
5688.60     58.81    58.81     14.2       55     57.4     13.2 14829.800     1.20    30318   4669.9  -999.25   230412 111631
5688.80     59.79    59.79     14.2       55     57.4     13.0 15070.200     1.20    30439   4790.8  -999.25   230412 111643
5689.00     60.19    60.19     14.4       55     57.3     12.8 15306.800     1.20    30417   4768.7  -999.25   230412 111655
5689.20     59.33    59.33     14.3       55     57.4     12.6 15216.700     1.20    30408   4760.2  -999.25   230412 111708
5689.40     57.18    57.18     14.2       55     57.5     12.4 15077.700     1.20    30362   4714.2  -999.25   230412 111720
5689.60     60.01    60.01     14.2       55     57.4     12.2 15070.200     1.20    30314   4665.3  -999.25   230412 111732
5689.80     60.28    60.28     14.2       55     57.4     12.0 15036.400     1.20    30401   4752.4  -999.25   230412 111744
5690.00     59.89    59.89     14.2       55     57.4     11.8 15062.700     1.20    30369   4720.6  -999.25   230412 111756
5690.20     59.57    59.57     14.2       55     57.3     11.6 15227.900     1.20    30347   4698.7  -999.25   230412 111809
5690.40     59.42    59.42     14.3       55     57.4     11.4 15434.500     1.20    30439   4790.9  -999.25   230412 111821
5690.60     60.14    60.14     14.2       55     57.3     11.2 15077.700     1.20    30339   4690.5  -999.25   230412 111833
5690.80     61.31    61.31     14.3       55     57.4     11.0 15040.100     1.20    30378   4729.2  -999.25   230412 111844
5691.00     61.73    61.73     14.5       55     57.3     10.8 15115.300     1.20    30488   4840.2  -999.25   230412 111857
5691.20     61.00    61.00     14.2       55     57.2     10.6 15152.800     1.20    30528   4880.1  -999.25   230412 111909
5691.40     59.02    59.02     14.4       56     57.4     10.4 15224.200     1.20    30549   4900.6  -999.25   230412 111921
5691.60     60.80    60.80     14.4       55     57.3     10.2 15295.500     1.20    30544   4896.1  -999.25   230412 111933
5691.80     61.36    61.36     14.3       55     57.3     10.0 14987.600     1.20    30471   4823.0  -999.25   230412 111945
5692.00     61.12    61.12     14.3       55     57.3      9.8 15130.300     1.20    30403   4754.8  -999.25   230412 111956
5692.20     61.09    61.09     14.3       55     57.3      9.6 15028.900     1.20    30469   4820.6  -999.25   230412 112009
5692.40     60.50    60.50     14.2       55     57.4      9.4 15182.900     1.20    30577   4928.7  -999.25   230412 112021
5692.60     60.97    60.97     14.2       55     57.2      9.2 15227.900     1.20    30489   4840.4  -999.25   230412 112032
5692.80     63.89    63.89     14.4       55     57.2      9.0 15073.900     1.20    30418   4769.7  -999.25   230412 112043
5693.00     64.27    64.27     14.4       55     57.1      8.8 15197.900     1.20    30515   4866.5  -999.25   230412 112055
5693.20     63.60    63.60     14.3       55     57.1      8.6 15126.500     1.20    30566   4918.1  -999.25   230412 112106
5693.40     61.79    61.79     14.4       55     57.1      8.4 15250.500     1.20    30566   4917.9  -999.25   230412 112118
5693.60     62.62    62.62     14.3       55     57.2      8.2 15055.200     1.20    30591   4942.7  -999.25   230412 112129
5693.80     62.62    62.62     14.4       55     57.2      8.0 15164.100     1.20    30616   4967.4  -999.25   230412 112141
5694.00     63.80    63.80     14.4       55     57.2      7.8 14987.600     1.20    30464   4815.9  -999.25   230412 112152
5694.20     63.78    63.78     14.5       55     57.2      7.6 15175.400     1.20    30456   4807.2  -999.25   230412 112204
5694.40     61.29    61.29     14.5       55     57.3      7.4 15115.300     1.20    30510   4861.8  -999.25   230412 112216
5694.60     62.17    62.17     14.4       55     57.1      7.2 15073.900     1.20    30569   4920.8  -999.25   230412 112227
5694.80     62.47    62.47     14.5       55     57.2      7.0 15160.300     1.20    30572   4923.6  -999.25   230412 112239
5695.00     62.86    62.86     14.4       55     57.3      6.8 15235.400     1.20    30559   4910.4  -999.25   230412 112250
5695.20     62.98    62.98     14.3       55     57.1      6.6 15167.800     1.20    30619   4970.9  -999.25   230412 112302
5695.40     62.64    62.64     14.5       55     57.2      6.4 15212.900     1.20    30608   4959.3  -999.25   230412 112314
5695.60     61.12    61.12     14.3       55     57.2      6.2 14796.000     1.20    30645   4996.6  -999.25   230412 112326
5695.80     62.25    62.25     14.5       55     57.3      6.0 15021.400     1.20    30618   4970.2  -999.25   230412 112337
5696.00     63.67    63.67     14.4       55     57.1      5.8 14968.800     1.20    30721   5072.4  -999.25   230412 112348
5696.20     64.02    64.02     14.5       55     57.0      5.6 15261.700     1.20    30685   5037.1  -999.25   230412 112400
5696.40     63.11    63.11     14.6       55     57.3      5.4 15156.600     1.20    30623   4975.2  -999.25   230412 112412
5696.60     61.19    61.19     14.4       55     57.2      5.2 15186.600     1.20    30655   5006.4  -999.25   230412 112423
5696.80     62.37    62.37     14.5       55     57.1      5.0 15167.800     1.20    30600   4951.5  -999.25   230412 112435
5697.00     63.72    63.72     14.4       55     57.1      4.8 15025.100     1.20    30535   4887.1  -999.25   230412 112446
5697.20     64.22    64.22     14.5       55     57.0      4.6 15231.700     1.20    30586   4937.5  -999.25   230412 112458
5697.40     63.80    63.80     14.5       55     57.0      4.4 15040.100     1.20    30598   4949.5  -999.25   230412 112509
5697.60     61.68    61.68     14.5       55     57.1      4.2 14976.300     1.20    30602   4954.3  -999.25   230412 112521
5697.80     62.77    62.77     14.5       55     57.0      4.0 14871.100     1.20    30651   5002.9  -999.25   230412 112532
5698.00     63.00    63.00     14.5       55     57.0      3.8 15175.400     1.20    30555   4907.2  -999.25   230412 112544
5698.20     63.32    63.32     14.6       55     57.0      3.6 15100.200     1.20    30592   4943.5  -999.25   230412 112555
5698.40     63.42    63.42     14.5       55     57.0      3.4 14950.000     1.20    30632   4984.2  -999.25   230412 112607
5698.60     62.76    62.76     14.7       55     57.0      3.2 15070.200     1.20    30654   5006.3  -999.25   230412 112619
5698.80     61.49    61.49     14.5       55     57.1      3.0 14901.200     1.20    30633   4985.0  -999.25   230412 112630
5699.00     63.58    63.58     14.5       55     57.0      2.8 14983.800     1.20    30605   4956.9  -999.25   230412 112641
5699.20     64.09    64.09     14.6       55     56.9      2.6 15058.900     1.20    30606   4957.7  -999.25   230412 112653
5699.40     63.50    63.50     14.5       55     58.0      2.4 14991.300     1.20    30707   5059.1  -999.25   230412 112709
5699.60     52.06    52.06     14.3       55     58.0      2.2 14893.700     1.20    30568   4919.3  -999.25   230412 112719
5699.80     67.41    67.41     14.8       55     57.3      2.0 14923.700     1.20    30420   4772.2  -999.25   230412 112729
5700.00     74.44    74.44     15.2       55     56.8      1.8 15036.400     1.20    30382   4734.1  -999.25   230412 112739
